time,x,y,z,vx,vy,vz,roll,pitch,yaw,vroll,vpitch,vyaw,x_cov,y_cov,z_cov,roll_cov,pitch_cov,yaw_cov,vx_cov,vy_cov,vz_cov,vroll_cov,vpitch_cov,vyaw_cov
1.72686962978881E+018,-6.51958800664656E-06,-2.65555739146395E-07,-3.18377241702207E-06,-0.000303355854704511,-1.98652353298395E-05,-0.000140482785393977,5.1970740022611E-07,-1.2466084640117E-06,1.25579023122491E-05,3.99466892302027E-05,-3.79317520475669E-05,0.000603349679949522,0.00100116992676344,0.00100116992677153,0.00120137970626309,0.00060075410751612,0.00060075410751323,0.00120137281364243,0.000446195023151947,0.000446195023151947,0.000495847961354156,0.00038418521143561,0.00038418521143561,0.000427117104514862
1.7268696298219E+018,-1.63644247469325E-05,-1.25155125401361E-06,-6.58347029204748E-06,-0.000346584824722703,-1.69739325042413E-05,-9.36313078697212E-05,-4.15013950716414E-06,-1.13243436703492E-05,1.34885704103915E-05,-0.000202094345427327,-0.00033027174029705,-2.96030804020989E-06,0.00249860285588345,0.00249860285605519,0.00299824258157883,0.00149932679677858,0.00149932679674546,0.00299823246490385,0.000393043216191476,0.000393043216191476,0.000463986250796878,0.000285056042765014,0.000285056042765014,0.000362651256191355
1.7268696298552E+018,-3.11920241061872E-05,-1.8397386911896E-06,-1.24785357436474E-05,-0.000341551629651869,-7.13373711655078E-05,-0.000176839547369857,-6.04111340374303E-06,-2.52599692700528E-05,-5.47963897812309E-06,5.15281859309012E-05,-0.000298982886463905,-0.000585702233984932,0.00450155043466162,0.00450155043613886,0.00540169980043087,0.00270125442893974,0.00270125442783021,0.00540168931095298,0.000391529389414606,0.000391529389414606,0.000464684176521895,0.000271829677910875,0.000271829677910875,0.000359214119922936
1.72686962988846E+018,-4.15666102986852E-05,-4.66343715895447E-06,-1.66561056789919E-05,-0.000360309579141892,-0.000120792637818483,-0.000134071109318168,1.55357551268054E-06,-3.70310140507257E-05,-2.25830897409018E-05,0.000303945503870233,-0.000405174813165712,-0.00050358622661617,0.00599824627707369,0.00599824628058955,0.00719767507277829,0.00359939131426768,0.00359939131164433,0.00719766444798583,0.000390170163527784,0.000390170163527784,0.000462970360216528,0.000270112754617646,0.000270112754617646,0.000357894263035361
1.72686962992185E+018,-5.54109839494212E-05,-3.60918903172094E-06,-2.02800284040442E-05,-0.000470650984424948,5.72630837888709E-05,-0.00010783784496449,-1.05184997738483E-05,-6.31063094513884E-05,-2.58202386995698E-05,-0.000243384584734821,-0.000763659100572595,-3.91708234963564E-05,0.00749906476659106,0.00749906477434691,0.00899859727028095,0.00450000242183281,0.00450000241310384,0.00899858656134619,0.00039099789158945,0.00039099789158945,0.000464040746958501,0.000270309899814603,0.000270309899814603,0.000358527815445543
1.72686962995535E+018,-6.92027529563697E-05,9.21172907498866E-07,-2.50550655632754E-05,-0.00032082298592332,6.17660101581238E-05,-0.000144619388097888,-2.3406725671915E-05,-6.83192401162991E-05,-1.88394183964213E-05,-0.00015312519020043,-0.000250698767286479,0.000151812046747914,0.00949999002297559,0.00949999004041897,0.0113996276442728,0.00570071753854189,0.00570071751800523,0.0113996165906479,0.000390570903835089,0.000390570903835089,0.000463358065380897,0.000270096629026694,0.000270096629026694,0.000358105087185187
1.7268696299889E+018,-7.66645004746159E-05,5.01331039413668E-06,-2.93819047305954E-05,-0.000249476966178263,0.000156298955425922,-0.000118772515194488,-3.96211756350517E-05,-7.32077730885017E-05,-2.58579950926929E-05,-0.000475867304502116,-0.000227372461654795,-0.000282449300281005,0.0110007832314445,0.0110007832560365,0.013200519546812,0.00660131341856782,0.00660131339352887,0.0132005081497953,0.000390776984026341,0.000390776984026341,0.00046363683465565,0.000270127609847564,0.000270127609847564,0.000358205548269303
1.72686963002179E+018,-8.37862522065362E-05,1.01374789439267E-05,-3.27511476912044E-05,-0.000252238347423527,0.000161795890231585,-0.000115875099029076,-5.02431519406876E-05,-8.38540976353386E-05,-4.20195203338913E-05,-0.000347908144386715,-0.000318505538825378,-0.000428087580044812,0.0125004496289444,0.0125004496601087,0.0150000593893712,0.00750123300660188,0.00750123297278042,0.0150000475470431,0.000391184218188643,0.000391184218188643,0.00046417931966096,0.000270251661343473,0.000270251661343473,0.000358477647117993
1.72686963005548E+018,-9.84560403007073E-05,1.32377828861304E-05,-3.80631812776211E-05,-0.000371596536319563,-8.66152060005462E-06,-0.000129630818162875,-4.84578432060623E-05,-0.000102668226246827,-6.43467913596929E-05,0.000170417368009344,-0.000443172545936854,-0.000807032288939648,0.0144994930878271,0.0144994931342468,0.0173988318444321,0.00870081860240908,0.00870081854595467,0.0173988191021657,0.000390439178068389,0.000390439178068389,0.000463171290595003,0.000269830744705243,0.000269830744705243,0.000357754259508634
1.72686963008885E+018,-0.000109507448175283,1.00980901040214E-05,-4.2667647879823E-05,-0.000344025879446605,-0.000119431080276272,-0.000159726296267287,-3.74277807075884E-05,-0.000108489631219566,-8.12163023335977E-05,0.000319074008305881,-0.000229044672782643,-0.000634432711869502,0.0160048447876135,0.0160048448545716,0.0192051937772706,0.00960415002059563,0.00960414994223798,0.0192051802082104,0.000391678295269912,0.000391678295269912,0.000464662141069517,0.000270490011367465,0.000270490011367465,0.000358787664566626
1.72686963012224E+018,-0.000122166995965706,7.24697642754885E-06,-4.68457647445022E-05,-0.000435255989117418,-0.00010236924121504,-0.000134544231094988,-3.44467165493967E-05,-0.000126029832261842,-9.30441842723617E-05,0.000191682275044165,-0.000513072086631381,-0.000355252255926677,0.0175013232760905,0.0175013233682331,0.0210009084770308,0.0105021562144241,0.0105021561133981,0.0210008939041207,0.00039153436196275,0.00039153436196275,0.00046450172363606,0.000270312847652606,0.000270312847652606,0.000358579346032892
1.72686963015541E+018,-0.000137466192503505,4.07253758216133E-06,-5.25567923985556E-05,-0.000353987000109925,-6.00572365576772E-05,-0.000185850818221609,-2.79761618653396E-05,-0.000141117810120051,-0.000106446941134486,0.000111339190129887,-0.000346068210412576,-0.000273444234168629,0.0195021342689961,0.0195021344068463,0.0234018020804957,0.0117028022596333,0.0117028021016452,0.0234017857405058,0.000390710565242517,0.000390710565242517,0.000463260479342736,0.000269964752694138,0.000269964752694138,0.000357835566165571
1.72686963018885E+018,-0.00014663522808282,2.76399935059403E-06,-5.58607406450208E-05,-0.000294739325360607,-6.75190440263597E-06,-8.81203345897211E-05,-3.25142591748317E-05,-0.000149322966617405,-0.000129882242106749,-0.000180755079737748,-0.000304503519089884,-0.000792978852968423,0.0210020447022132,0.021002044873533,0.0252016349840329,0.0126028679210617,0.0126028677310173,0.0252016171340731,0.000391103358419676,0.000391103358419676,0.000463848246088562,0.000270038604826474,0.000270038604826474,0.000358077165721849
1.72686963022241E+018,-0.000156754169520463,3.23265344169772E-06,-5.92685832846694E-05,-0.000359779660098344,-1.64148393160242E-05,-0.000136305347069198,-3.33150862688036E-05,-0.0001654936964961,-0.000133644502101404,1.28701107923913E-05,-0.000529406625390842,1.29338397905464E-06,0.0225028130727983,0.0225028132784266,0.0270024974384942,0.013503448355624,0.0135034481254174,0.0270024778297983,0.000391638146460687,0.000391638146460687,0.000464474784553112,0.000270291644394216,0.000270291644394216,0.000358487911732111
1.72686963025571E+018,-0.000172299840265318,2.97350014279593E-06,-6.67911431402875E-05,-0.000391529085316146,-6.92856129456515E-05,-0.000193377910752489,-3.47139980800826E-05,-0.000181706162682982,-0.000130015412064033,0.000124597778202114,-0.000429836786389228,-1.03937119815326E-05,0.0245024337762588,0.0245024340481295,0.0294019630119432,0.0147033796717183,0.0147033793513478,0.02940194062576,0.000391683538235977,0.000391683538235977,0.000464515920904206,0.000270258438710951,0.000270258438710951,0.000358443112430628
1.72686963028846E+018,-0.000180043951963681,-2.56698371793209E-06,-7.07560901941055E-05,-0.000228720309898877,-0.000177711177167519,-0.000109786848717734,-2.09018345045386E-05,-0.00017826527775977,-0.000126397896602182,0.000325137300444387,1.49242657117953E-05,8.74120444539282E-05,0.0260048673859344,0.0260048677102198,0.0312048237728633,0.015604959243992,0.0156049588771663,0.0312047989252296,0.000391623384562531,0.000391623384562531,0.000464407866503062,0.000270222701883666,0.000270222701883666,0.000358339555100758
1.72686963032229E+018,-0.00018495350551323,-7.95109877424169E-06,-7.50803324451609E-05,-0.000157307404619617,-0.0001713249649948,-0.000178345741187521,-1.52598541536264E-05,-0.000166873827235126,-0.000128648232840423,0.000211786064892703,0.000294270896155381,-8.18831001439937E-05,0.0275023328403204,0.0275023331963585,0.0330017231224319,0.0165035570638739,0.0165035567183606,0.0330016956023723,0.00039190924779511,0.00039190924779511,0.00046479662223434,0.000270254751466379,0.000270254751466379,0.000358504178919061
1.72686963035531E+018,-0.00019527036934083,-1.3779303773701E-05,-8.17302515209379E-05,-0.000232889550224551,-0.000112029183088257,-0.000128729971843501,-1.14152950927426E-05,-0.000176087146479098,-0.00015147208530264,6.20505198384023E-05,-9.28356430512599E-05,-0.000428649871757251,0.0295019801193994,0.0295019805257198,0.0354012208468756,0.0177035037316348,0.0177035033914669,0.0354011891796574,0.000391574104030994,0.000391574104030994,0.000464328995939625,0.000270045929734564,0.000270045929734564,0.000358141534632183
1.72686963038867E+018,-0.000201979758717526,-1.60433397578007E-05,-8.47339325507827E-05,-0.000238583979266484,-8.04613695357316E-05,-9.29816673923467E-05,-9.08496083518173E-06,-0.000179522180780989,-0.000154055083570803,9.32481499854703E-05,-0.000165457830980788,-0.000152881360671139,0.03100547706507,0.0310054775120971,0.0372053577712052,0.0186057209981196,0.0186057206486505,0.037205322598147,0.000391846742968895,0.000391846742968895,0.000464568091141312,0.000270236023972727,0.000270236023972727,0.000358352231461118
1.7268696304219E+018,-0.000207810868224916,-1.70216375409046E-05,-8.83303516888802E-05,-0.000198709740747383,-1.89967457871724E-05,-0.000136215900218164,-1.650833513267E-05,-0.000179207336544973,-0.000142773751004466,-0.000162205359590641,-5.35473815471842E-05,0.000338227923391768,0.0325031609328141,0.0325031614231289,0.0390025194414163,0.0195044495133243,0.0195044491455515,0.0390024805244551,0.000392023351964401,0.000392023351964401,0.000464841318103707,0.000270211686290515,0.000270211686290515,0.000358420514752693
1.7268696304553E+018,-0.000214185124594672,-1.77570501414138E-05,-9.35309771662883E-05,-0.000118143758588632,-5.53466827080656E-05,-0.000120005247474907,-1.84025833598334E-05,-0.000172321769581263,-0.000151849922740865,3.20534427694084E-05,0.000235160438467176,-0.000579192285369948,0.0345017464159625,0.0345017469643598,0.0414007434080653,0.0207037583896766,0.0207037580154598,0.041400698872733,0.000391503204297492,0.000391503204297492,0.000464158372448825,0.000269897352420433,0.000269897352420433,0.000357896888953041
1.72686963048866E+018,-0.000216215844940155,-1.78868237822455E-05,-9.71297722778062E-05,-8.6280523095721E-05,-3.43338647337266E-06,-0.00013007563608409,-2.49645648131569E-05,-0.000162583240830294,-0.000160900668933372,-0.000143724808743336,0.000247214460843164,-0.000299975177983524,0.0360083810483682,0.0360083816157131,0.0432086455989533,0.0216078581498466,0.0216078578416843,0.0432085963759244,0.000392812638509789,0.000392812638509789,0.000465710621999304,0.000270631186227572,0.000270631186227572,0.000359007106881982
1.7268696305218E+018,-0.000220729125326149,-2.10520712511767E-05,-0.000101617217976649,-0.000161932078557356,-0.000112302146431164,-0.000160952260466,-1.57674738705538E-05,-0.000164928652401475,-0.000167523632955024,0.000180729063668198,-1.97037146126688E-05,-0.000299980367750334,0.0375048366295297,0.0375048372220323,0.0450043336450857,0.0225058490153821,0.0225058487416443,0.0450042794555225,0.000392170437438341,0.000392170437438341,0.000464920799404439,0.000270207259524596,0.000270207259524596,0.000358379198551292
1.72686963055516E+018,-0.000224952218468819,-2.61098864841789E-05,-0.00010905121445105,-5.7439086905583E-05,-7.0606419415374E-05,-0.000161129772553552,-1.56296438627024E-05,-0.000156379784848948,-0.000179352491155527,-0.000131282617768805,0.0002504133190891,-0.00027133314796713,0.039502795630995,0.039502796264048,0.0474018062131956,0.0237047812489217,0.0237047809846463,0.0474017448084071,0.000392141226588904,0.000392141226588904,0.00046488601985506,0.000270114476045916,0.000270114476045916,0.000358273177033928
1.72686963058856E+018,-0.000224165999123686,-2.79026958545377E-05,-0.000111435344474138,2.39028841576573E-05,-0.000108782742268437,-0.000104905578769579,-1.15796602626617E-05,-0.000144689923260888,-0.000181554241392323,0.000123931697515794,0.000426934519098503,-0.000162534581872786,0.0405056486242594,0.0405056492593645,0.0486051904990105,0.0243065718234058,0.024306571609249,0.0486051251655575,0.000392436835709996,0.000392436835709996,0.00046512923309854,0.000270342776935443,0.000270342776935443,0.000358533437470234
1.72686963062191E+018,-0.000223134685085105,-3.70329253165975E-05,-0.000116863111674388,-2.97338292451451E-05,-0.000239803190175609,-0.00015341476793749,1.25786578628606E-05,-0.000136936316416758,-0.000191209877986598,0.000524924985502138,0.000137313139841345,-0.000324586551163903,0.0425055949975677,0.0425055955979278,0.0510050478959456,0.0255066964108398,0.0255066963039201,0.0510049738139154,0.000390898757598184,0.000390898757598184,0.000463788943974589,0.000268993782495992,0.000268993782495992,0.000356922130684569
1.72686963065525E+018,-0.00022433908292945,-4.68192566437648E-05,-0.000122760908033768,1.39439368459202E-05,-0.000228761404762599,-0.00013117880489712,2.78616136677456E-05,-0.000120505826526784,-0.000189669420408212,0.000373984807557899,0.000494843538107813,0.000139971519286358,0.0445040535575898,0.0445040541407251,0.0534031204017415,0.026705927613563,0.0267059275537534,0.0534030374035031,0.000392357306202934,0.000392357306202934,0.00046508592982016,0.000270062603376148,0.000270062603376148,0.000358285734496726
1.72686963068855E+018,-0.000224378510133295,-5.27612784531604E-05,-0.000126178808066843,6.60010859048062E-06,-0.000163127619608032,-0.000125914111848145,3.72700020867534E-05,-0.000111768714799787,-0.00018554985260133,0.000273225848188547,0.000360542786441862,0.000134630494386713,0.0460053889568816,0.0460053895088728,0.0552046644619842,0.0276068459684499,0.0276068459875989,0.0552045741136033,0.000392159267114892,0.000392159267114892,0.000464704056799973,0.000270075146297838,0.000270075146297838,0.000358112738845026
1.72686963072182E+018,-0.000223987452787428,-5.49017996645453E-05,-0.000131610832520779,1.56871751891556E-05,-5.41173215879309E-05,-0.000191276443295704,3.52854950245174E-05,-9.73024171218029E-05,-0.000176954723244194,-3.72865676495117E-07,0.0004388966615405,0.000105752062945119,0.047505623360485,0.0475056238909874,0.0570048874291828,0.0285071034812341,0.0285071035736109,0.0570047894573754,0.00039279019451175,0.00039279019451175,0.000465544894304952,0.000270328115331452,0.000270328115331452,0.000358589661279742
1.72686963075532E+018,-0.000221795550719281,-5.35622017114732E-05,-0.000138731961234958,4.23380541128942E-05,5.43190153283435E-05,-0.000131509465011473,2.58346835044776E-05,-7.53235549524334E-05,-0.000166289762930649,-0.000251415912519747,0.000428739421427536,0.000457513603921639,0.0495060688867927,0.0495060693995594,0.0594053444192887,0.0297075264373154,0.0297075266400307,0.0594052356390648,0.000392454576043539,0.000392454576043539,0.000465056296544946,0.00027015726740803,0.00027015726740803,0.00035825350218817
1.72686963078861E+018,-0.000220821006301983,-5.04691190040664E-05,-0.000142134794716678,-3.84263416373764E-07,0.000126071822673011,-0.000138956907985572,1.80900369941561E-05,-7.27434418674733E-05,-0.000142613981025885,-0.00030840589068248,0.00010101624450162,0.000756060753238697,0.0510122068644473,0.0510122073725856,0.0612126515078703,0.0306113265926812,0.0306113268451634,0.061212534079086,0.000393436251013705,0.000393436251013705,0.000466220874835293,0.000270703686502196,0.000270703686502196,0.000359078099092074
1.72686963082218E+018,-0.000219472041639458,-4.48840340950616E-05,-0.000146985688456568,4.85465798044206E-05,0.000166289881200422,-0.000155596118379922,3.35541876861356E-06,-6.05556177180056E-05,-0.00013056178074855,-0.000375568610581898,0.000339840392688343,0.000450005076936344,0.0526005117293429,0.0526005122559164,0.0631185537928045,0.0315644374627397,0.0315644377395156,0.0631184254454779,0.000409769695515275,0.000409769695515275,0.000486297296807871,0.000279959053086003,0.000279959053086003,0.000373367185732526
1.72686963085538E+018,-0.000219066283728551,-4.34532247103416E-05,-0.000154008183032931,1.74689525603064E-05,-2.20504190764541E-06,-0.000174508484276605,7.40569655777179E-06,-5.02945888012363E-05,-0.000124226691661455,0.000117282014787739,0.000315800773158514,0.000236712004964899,0.0545052465529407,0.054505247088971,0.0654041643656907,0.0327074210906104,0.0327074214076923,0.0654040249325797,0.00039119607944659,0.00039119607944659,0.00046369168795169,0.000269027004894454,0.000269027004894454,0.000356893853651127
1.72686963088906E+018,-0.000218507889929235,-4.46544935077388E-05,-0.000158325368012433,2.68045688768671E-05,-3.34795085543363E-05,-0.000164627804007884,1.2733800091258E-05,-3.93663915549958E-05,-0.000126819506093945,0.000147418423914446,0.000391552503343688,-0.000132707817723024,0.0560093104462992,0.0560093109763339,0.0672089831538936,0.0336099758359985,0.0336099761811044,0.0672088336244708,0.000392851589506554,0.000392851589506554,0.000465477253854863,0.000270171859530831,0.000270171859530831,0.000358398601631653
1.72686963092219E+018,-0.000219396508480233,-4.71174704410551E-05,-0.000163361116281499,-8.61900658385401E-05,-6.68830489139636E-05,-0.000152687152138721,2.45825647344766E-05,-3.56312367912892E-05,-0.000121780966680696,0.000292282784912141,6.31133712396584E-05,0.000164760566669568,0.057508509510691,0.0575085100249457,0.0690079644580707,0.0345096109100705,0.0345096112839527,0.0690078044959248,0.000392831144741797,0.000392831144741797,0.000465455653504348,0.000270174731554681,0.000270174731554681,0.000358342493698613
1.72686963095534E+018,-0.000226527344389731,-4.57332877266566E-05,-0.000169348922605485,-0.000185812552085809,7.06519246746806E-05,-0.000145846951668627,1.64309964052478E-05,-4.09068151703274E-05,-0.00011357372247689,-0.000212505721231917,-0.00011079295877357,0.000100594613267516,0.0595060891096605,0.0595060896671525,0.0714049834143848,0.0357083125457635,0.0357083129178751,0.071404808892003,0.000392644269764843,0.000392644269764843,0.000465237582196227,0.000270018916819549,0.000270018916819549,0.000358116234704055
1.72686963098874E+018,-0.000233534800583581,-4.34597664903988E-05,-0.000174021492929059,-0.000221658894121279,4.48795790948881E-05,-0.000154193113848073,1.0422445842817E-05,-4.19723918452242E-05,-0.000110554764727766,-0.000136111870378038,-2.63713313830176E-05,0.000199803390784436,0.0610129331423759,0.0610129337711805,0.0732131384082216,0.0366125353337391,0.0366125356957195,0.0732129522726823,0.000393719013953009,0.000393719013953009,0.000466480774833095,0.000270661766806506,0.000270661766806506,0.000359041954397654
1.72686963102236E+018,-0.00023986423598607,-4.0964236405512E-05,-0.000178243197735322,-0.000213882289624524,5.86618156535871E-05,-0.000126202446347271,-3.64620646120528E-07,-3.89967210785436E-05,-0.000111794903755236,-0.000226122350606459,3.9156495006982E-05,6.83055594755042E-05,0.0625089961914586,0.0625089968951831,0.0750083569755845,0.037510288013254,0.0375102883786481,0.0750081590852026,0.000392916153700687,0.000392916153700687,0.000465463966347219,0.000270177674952691,0.000270177674952691,0.000358301099088115
1.7268696310555E+018,-0.000245070100833671,-3.89913964749496E-05,-0.000181558033134707,-0.000160817313561937,6.11948910478693E-05,-0.000110381351742052,-1.43923433557624E-05,-3.41050809811172E-05,-0.000110136491046298,-0.00040122071763787,0.000185736265103629,-9.46655718363433E-05,0.0640065319925883,0.0640065327710946,0.0768053428625429,0.0384089243783634,0.0384089247464928,0.0768051327655095,0.000392355751519511,0.000392355751519511,0.000464753750299744,0.000269847542474702,0.000269847542474702,0.000357777144121438
1.72686963108869E+018,-0.000242366263503152,-3.97621329157027E-05,-0.000188150089942342,0.000103217010533779,-1.22275084045058E-05,-0.000207952418279055,-1.1504940021112E-05,3.06425737450766E-06,-0.000114110763192787,-3.96511118214808E-05,0.000835770156650184,-0.000134804950548884,0.0660101697587208,0.0660101705587759,0.0792096317515808,0.0396112608174513,0.0396112612109472,0.0792094046991439,0.000392668784076671,0.000392668784076671,0.000465061454175006,0.000270051568155067,0.000270051568155067,0.000358025201220577
1.72686963112225E+018,-0.000240261165001468,-4.08760684696245E-05,-0.000193685018852857,6.76354451328129E-05,-2.49835070674811E-05,-0.000180744622693382,-1.08579413056198E-05,1.91752416474067E-05,-0.000115932452973588,-2.6447505891881E-05,0.000583047678911228,-0.000112452160476927,0.0675104718037983,0.0675104725693342,0.0810099370904693,0.0405115569133711,0.0405115572905908,0.0810096970618908,0.000393485646105733,0.000393485646105733,0.000466193126514746,0.000270358380733085,0.000270358380733085,0.000358655733213589
1.72686963115494E+018,-0.000238025895998331,-4.50630056389882E-05,-0.000199021225114043,2.2978262594935E-05,-0.000177758632157102,-0.000123540096813271,5.95276633408304E-06,3.11464922453375E-05,-0.000122433859357951,0.000496930926992545,0.000286392822017611,-0.000162148065963331,0.0695089629901531,0.0695089637165465,0.0834080506591446,0.0417108043283738,0.0417108046653407,0.0834077926392528,0.000393057820795985,0.000393057820795985,0.000465641683286748,0.000270103713617349,0.000270103713617349,0.000358241102086339
1.72686963118863E+018,-0.000240963680893894,-5.06745351283516E-05,-0.000203728403360573,-0.000124225332436802,-0.000190311782622294,-0.000170086635759553,2.03421924989122E-05,2.93828505193439E-05,-0.000127134122560157,0.000470117118095884,-1.85136639474538E-05,-0.000315033654495575,0.0710114425814401,0.0710114432908974,0.0852109691697466,0.0426124068615956,0.0426124071813036,0.0852106969862731,0.000393084621000086,0.000393084621000086,0.000465566119214395,0.000270179675342027,0.000270179675342027,0.000358264605454973
1.72686963122184E+018,-0.000243409198030648,-5.50604151968601E-05,-0.000209205089680256,-9.06793232192778E-05,-0.000115867738154436,-0.000179878904171792,2.26716951230443E-05,4.07982736456702E-05,-0.000131498558001208,8.41860529560397E-05,0.000222897566250453,-0.000193628419056631,0.0725191976993069,0.0725191984145678,0.0870202180672436,0.0435171751900621,0.0435171754936736,0.0870199311798543,0.000395160560972543,0.000395160560972543,0.000468191762289858,0.000271247329973648,0.000271247329973648,0.000360017937043677
1.72686963125552E+018,-0.000246288865560633,-5.97950279616913E-05,-0.000215004747845258,-6.53128184577976E-05,-0.000104375816500949,-0.00015545186819064,2.81787980371817E-05,4.78386469517922E-05,-0.00012941633732888,0.000120336280774882,0.000203369185839659,-6.52534624935195E-05,0.0745113262530756,0.074511326978275,0.0894106972927713,0.0447126035520616,0.044712603827065,0.0894103907091965,0.000393468800875288,0.000393468800875288,0.000466078408723311,0.000270271408179625,0.000270271408179625,0.000358500634457994
1.72686963128849E+018,-0.000248830873555814,-5.98609629988802E-05,-0.000220391052104487,-9.63729317847514E-05,8.61670624710045E-06,-0.000165652137429438,1.98781470244214E-05,4.76337538124483E-05,-0.000130059514455549,-0.000204002888423167,-1.71882469947989E-05,-9.80369144904434E-06,0.0760164571773371,0.0760164579142382,0.0912167975479704,0.0456157967131817,0.0456157969623924,0.0912164754115895,0.000394171795857321,0.000394171795857321,0.000466901408982193,0.000270695317044089,0.000270695317044089,0.000359100620174503
1.72686963132177E+018,-0.000209856448958909,-5.8218104850354E-05,-0.000229381136483126,0.00173783878521707,8.0375248513592E-05,-0.000400460854409042,9.28615451645243E-06,2.72330886379457E-05,-0.000127608504832732,-0.000392226724272069,-0.000726539294636906,6.49058815657055E-05,0.0775153396524893,0.0775153403021554,0.0930154000769281,0.0465152398628586,0.0465152401172944,0.0930150622167024,0.000394389584475524,0.000394389584475524,0.000467215579452704,0.000270731386881771,0.000270731386881771,0.000359238314411309
1.72686963135511E+018,0.000140345379687463,-5.80271093159616E-05,-0.000261228064289486,0.0112073356409635,-3.79069883841201E-05,-0.00089980472140863,2.29386182661884E-05,-0.000206101968688532,-0.0001197473033967,0.000385143266839533,-0.00549215109197138,0.000593638643129231,0.0795131162658167,0.0795131180509031,0.0954126573078326,0.0477140577855651,0.0477140572284768,0.0954122965708656,0.000393471794186157,0.000393471794186157,0.000466022359583952,0.000270243995735815,0.000270243995735815,0.000358417958790721
1.72686963138843E+018,0.000788982949685454,-6.33611139029192E-05,-0.000296311463767246,0.022517407567797,-0.00024607216153502,-0.00127067198537761,5.83572704937474E-05,-0.000354344326580325,-6.97353562681968E-05,0.00119006398719717,-0.00487058099590523,0.00183688620007496,0.0810130242941509,0.0810130557256026,0.0972125050486666,0.0486141200283764,0.0486141153245942,0.0972121137641065,0.000392553275200847,0.000392553275200847,0.000464756228702227,0.000269820501725801,0.000269820501725801,0.000357631469986638
1.72686963142176E+018,0.00179807860597275,-6.75635658216315E-05,-0.000350350857975439,0.0342683171776208,-9.5061588007556E-05,-0.00204014735778548,0.000104827146151898,-0.000248508872965125,3.0968694315181E-05,0.00145573142836679,0.00191390239658959,0.00359398703019943,0.0825127788726537,0.0825129585359641,0.0990122276086826,0.0495140883232438,0.0495140809835597,0.0990117465491633,0.000393704684190365,0.000393704684190365,0.000466319482128206,0.000270286499558202,0.000270286499558202,0.000358552305567086
1.7268696314551E+018,0.00358295940446001,-5.84066730136313E-05,-0.000460044626795098,0.0458838561329443,0.000312052287225261,-0.0030414929913331,0.000186488803661788,-3.54250915379772E-05,0.000295713255655361,0.00199540377388514,0.00473594208975295,0.00727268545397783,0.0845123512591709,0.0845131849333345,0.101411963967826,0.0507139796762772,0.0507139743948033,0.101411130620849,0.000393165788267346,0.000393165788267346,0.00046563660513312,0.00026999773879998,0.00026999773879998,0.000358056093091533
1.72686963148849E+018,0.00513591405140814,-4.80868240398636E-05,-0.000575202853869019,0.0514145380096934,0.000333515363763307,-0.00411326613056063,0.000326197668114592,0.000207238653517905,0.000591985452418342,0.00406770895323621,0.00733198340690132,0.00987251865650457,0.08601470864025,0.0860165764554682,0.103215249666413,0.051615507345031,0.051615501139578,0.103213881472876,0.00039300600874468,0.00039300600874468,0.000465283891499541,0.000270006892144544,0.000270006892144544,0.000357939938264375
1.72686963152215E+018,0.00678492859916399,-3.13261946083654E-05,-0.000698729812323808,0.0545027914241653,0.000514479166981772,-0.00391304089502848,0.000483488779570163,0.000382246126042762,0.000904493474972678,0.00505810129227274,0.00610494166776258,0.0102590487263218,0.087513201410575,0.0875166858091803,0.105014186541855,0.0525147195674831,0.0525147075958987,0.105011996199219,0.000393690279275356,0.000393690279275356,0.000466260954182052,0.000270234768725073,0.000270234768725073,0.000358461262336233
1.72686963155524E+018,0.0089472988974062,7.44470621560824E-06,-0.000822885010682435,0.0527510575059524,0.00110420924993517,-0.00313029082003233,0.000562980243741684,0.000642610970907231,0.00128339179503634,0.00163469564311693,0.00699521104883641,0.00910524243635914,0.0895132030075605,0.0895197510262639,0.10741563638356,0.0537148797327262,0.0537148560810726,0.107411899580716,0.000393447237613019,0.000393447237613019,0.000465923588598663,0.000270127158051716,0.000270127158051716,0.000358233230206424
1.72686963158867E+018,0.0106334354365628,5.71492199463142E-05,-0.000911788987284741,0.0560506715233998,0.0017817831807316,-0.00168920356161847,0.00056312991547669,0.000721789620459656,0.00148811061036769,0.000417782292093352,0.00300436764845377,0.00655076056076531,0.0910297917415572,0.0910392565679687,0.109236935151742,0.0546249575647005,0.0546249200738798,0.109231732255538,0.00039636356128736,0.00039636356128736,0.000469472179396453,0.000271789622142642,0.000271789622142642,0.000360768845820563
1.72686963162201E+018,0.0127643129963764,0.00041382049492815,0.000158748051644619,0.0711263481839548,0.0140446099475618,0.0392763932730962,0.000563243749347908,0.000229659993048692,0.00149031302727165,-0.00277226371459897,-0.0137880735497282,-0.00175710724247222,0.0925260803936321,0.0925395722135817,0.111034471123483,0.055522855422982,0.0555228195489436,0.111027228580315,0.000394234686482,0.000394234686482,0.000466843374798907,0.000270605230678283,0.000270605230678283,0.000358893002003702
1.72686963165522E+018,0.0161338046107207,0.00139719072704454,0.000665841266574609,0.0864777486839853,0.0266126469919786,-0.000559136102317769,-0.000465801080856032,-0.000320974258312567,0.00126866606413367,-0.0251698877248893,-0.00839248836942813,-0.000648681116055499,0.0945223192933901,0.0945440573063397,0.113433942171353,0.0567206780095173,0.0567206311671955,0.113422427690216,0.000393015164637899,0.000393015164637899,0.00046539059816431,0.00026983900485069,0.00026983900485069,0.000357780133828287
1.72686963168866E+018,0.0193756485836848,0.0023693477189874,0.000179996301087564,0.107930581125255,0.0323601273192562,-0.0171816581398631,-0.000994627545026994,0.000540538320632944,0.00182583194146213,-0.0175135370356812,0.0212084937475284,0.0180603415513165,0.0960292065254004,0.0960602437409306,0.115246771318046,0.0576247770781626,0.0576247248842469,0.115230309684776,0.000394504310938032,0.000394504310938032,0.000467119651766616,0.000270696993170573,0.000270696993170573,0.000359082964165883
1.72686963172208E+018,0.022996858968542,0.00336776146683408,-0.000220890770239631,0.120031750370071,0.0332524611751434,-0.0120494193601583,-0.000813267762735936,0.00176408641369541,0.00244631752272628,0.00240115062045981,0.0357853308956317,0.0205042689113148,0.0975243218160184,0.0975685996705488,0.117047393172455,0.0585217577592364,0.0585216079281186,0.117023806246249,0.000393352048275311,0.000393352048275311,0.000465710835441882,0.000270028869141168,0.000270028869141168,0.000358053681665177
1.72686963175542E+018,0.028087722119351,0.00476365180690087,-0.000685945597323674,0.126617161594462,0.0350139695660054,-0.0117283099998861,0.000874370500460575,0.00275415235507204,0.00355395542287518,0.0374979193326288,0.0244342193692525,0.0295298684753021,0.0995220025647661,0.099589970726368,0.119456152985874,0.0597201897439632,0.0597197081470636,0.119419807590358,0.000392762303904698,0.000392762303904698,0.000465105028171648,0.00026959191643364,0.00026959191643364,0.000357475116356509
1.72686963178871E+018,0.0318719830557505,0.00581168811029606,-0.00105893643028454,0.123055324905877,0.0343382507584864,-0.0125987632230836,0.00163235564657338,0.00333289097104483,0.00454909826805006,0.0271861912162736,0.0194367845025446,0.0322750075634183,0.101030510775468,0.101120382555596,0.121276998087392,0.0606249614038391,0.0606242251340087,0.121228713403453,0.000394385729968494,0.000394385729968494,0.000467003844524368,0.000270552070228021,0.000270552070228021,0.000358901833844118
1.72686963182202E+018,0.0356481483314437,0.00689027865815345,-0.00162176238418801,0.126326199699225,0.0361337775548744,-0.020245320527269,0.00184878577793501,0.00323596539495252,0.00556009052648499,0.0090545580979311,-0.000301561362231775,0.03377604117002,0.102529085952745,0.102643109133433,0.123086961955562,0.0615235271822406,0.0615226118837342,0.123025307419177,0.00039418717848389,0.00039418717848389,0.000466835562877849,0.000270365671146672,0.000270365671146672,0.000358684170540638
1.72686963185537E+018,0.0396764978443035,0.00812739077184452,-0.00218473966287236,0.132633050939327,0.0408274024001617,-0.0167413242119679,0.000583265779683373,0.00267647533584681,0.00669420820787314,-0.0324700533197962,-0.0120283057704054,0.0377434917883259,0.104036697267652,0.104179314416439,0.124909827792683,0.0624269416012449,0.0624261124974871,0.124831869592563,0.00039362567703938,0.00039362567703938,0.000465907405610222,0.000270262202578188,0.000270262202578188,0.000358260613044356
1.72686963188865E+018,0.0452798168243815,0.00977127966434606,-0.00270208526015717,0.140449669678445,0.0391832777815191,-0.0134408488347747,0.000189989813551783,0.0027547428755903,0.00820054417543892,-0.00163059299300627,0.000123220052518788,0.0367076666175289,0.106042034678979,0.106230007343842,0.12733800081935,0.0636281544973208,0.0636274090649572,0.127233904613175,0.000394732951226766,0.000394732951226766,0.000467384017671289,0.000270726345852604,0.000270726345852604,0.000359155288972574
1.72686963192172E+018,0.0498970425923244,0.0109287133229858,-0.00340762182512246,0.154159764047648,0.0377865883955757,-0.0261896870419149,0.00132341488949983,0.00269555614660444,0.00931558536923127,0.0266241490972935,-0.000920162952176749,0.0375745867197547,0.107542974656544,0.107772380966861,0.129159030048302,0.0645270670286196,0.0645263320526895,0.129031390795796,0.000394344019398926,0.000394344019398926,0.000466911470135175,0.000270491607877975,0.000270491607877975,0.000358797402130111
1.72686963195545E+018,0.0551163106862214,0.0121713769453997,-0.00440260043521694,0.171518267644993,0.0398618498607304,-0.0327837893668414,0.001270859906505,0.00295605333443927,0.0107243309677112,0.00103136983243904,0.00623585305246248,0.0467693194373234,0.109064676271333,0.109346176179108,0.131009970453244,0.0654381028711359,0.0654373425762699,0.130853061361443,0.000397040893741543,0.000397040893741543,0.000470116974137904,0.000272107918919904,0.000272107918919904,0.00036117314987001
1.7268696319886E+018,0.0617730158619817,0.0140881440934943,-0.00311264329803213,0.162520523109167,0.0462197333104125,0.0695507814543802,0.00134223689814394,0.00453064986758145,0.0136796233854857,0.0273420726716884,0.0586794272474994,0.0840115769190992,0.111055592344217,0.111418447184136,0.133438496291196,0.066629599691607,0.0666287630553796,0.1332353871298,0.00039458618862528,0.00039458618862528,0.00046725560885802,0.000270531142814055,0.000270531142814055,0.00035894841290778
1.7268696320219E+018,0.0667657403701358,0.0154055114866407,-0.000281994748066542,0.167293129849929,0.0417022426051752,0.0926562543294676,0.0046855983657097,0.00811017384280133,0.0166857760987744,0.084606282515188,0.100874292723326,0.0953668838469719,0.112553557877873,0.112981379836545,0.135268503257994,0.0675282005151825,0.0675253827555202,0.135029246217929,0.000394088953733839,0.000394088953733839,0.000466627490599525,0.000270246017569289,0.000270246017569289,0.000358505728181019
1.72686963205511E+018,0.0739726276740319,0.0166335146253366,0.00129620792793473,0.179362164826134,0.0255587059177275,0.0197213029641648,0.00610682824318776,0.00927301804639935,0.0181838237394123,0.0302495139837185,0.030395959161194,0.0205736400321152,0.114558142124153,0.115090552369115,0.137724984303572,0.0687312928946597,0.0687248540297495,0.137430211883917,0.000393776359771441,0.000393776359771441,0.000466233828603076,0.000270104727187804,0.000270104727187804,0.000358225166013473
1.72686963208858E+018,0.0795344232995174,0.0172700099296328,0.00103422563053759,0.182972408780336,0.0175058063207876,-0.0107413313871758,0.00484179183214373,0.00935224468664142,0.0177681780146739,-0.024203939193643,0.010989743136586,-0.0135118918854497,0.11606713032817,0.116692168802691,0.139581340733777,0.0696355757821129,0.0696283733705458,0.139237622588453,0.000394372590248455,0.000394372590248455,0.000466899631711265,0.000270496660741744,0.000270496660741744,0.000358755041301874
1.72686963212222E+018,0.0851536922064367,0.0176451935070253,0.00037810063272426,0.185953534414834,0.00871558845921556,-0.0215786639106779,0.00477121811798442,0.00990286337798807,0.0170033938693379,-0.00436077233737192,0.0170634051534189,-0.0262087687150863,0.117564124102418,0.118292120292648,0.141428821520596,0.0705330581705749,0.0705253415707196,0.141031711855282,0.000392896647256416,0.000392896647256416,0.00046502611217158,0.000269687685334106,0.000269687685334106,0.000357470021013836
1.72686963215488E+018,0.0926806064684956,0.0177969850665962,-0.000619249302539324,0.185240325848001,-0.000442854686427612,-0.0219761111575844,0.00567846545220174,0.01034440151254,0.0154511947951494,0.0178271045566494,0.00848911474221281,-0.0389935088235351,0.119567262496113,0.120449899893887,0.14390968368136,0.0717352865825639,0.0717266025561122,0.143434631333415,0.000394147265188391,0.000394147265188391,0.000466701667328408,0.000270259765360506,0.000270259765360506,0.000358497530151865
1.72686963218826E+018,0.0980888864764003,0.0177245163844916,-0.00126931908019049,0.176310686064153,-0.00568508127779764,-0.0202764533669364,0.00668414494175584,0.00998836076500176,0.0144591958919103,0.0313194322941642,-0.00834584485854343,-0.0320509244175102,0.121071606988931,0.122079522206904,0.145777461158826,0.0726381102980173,0.0726292794054683,0.145239757202969,0.000394990034864313,0.000394990034864313,0.000467680180660306,0.000270766028631063,0.000270766028631063,0.000359237289913797
1.72686963222164E+018,0.103322141492173,0.017497490818439,-0.00211975847373396,0.172819046343411,-0.01046171019276,-0.0279584495800032,0.0078172903680227,0.00910770512972769,0.0134433987971665,0.0363967679015903,-0.0244856188969551,-0.0347780630028866,0.1225674708502,0.123703301431072,0.147636436104414,0.0735354674763773,0.0735272617747737,0.147034795449479,0.000394482380029745,0.000394482380029745,0.000467073140855464,0.000270449667797182,0.000270449667797182,0.000358775008013552
1.72686963225476E+018,0.110297888801118,0.0170238313140264,-0.00307856418360533,0.172710087761598,-0.0147464914317469,-0.0196683575937087,0.00941208189582277,0.00861048962958444,0.0119878277453052,0.0372786606357609,-0.0117429541482863,-0.0351381886849971,0.12456488338726,0.12588224384526,0.150124069858165,0.0747338955603312,0.074726793522125,0.149432359495898,0.000393776575318325,0.000393776575318325,0.000466205957788505,0.00027007106539885,0.00027007106539885,0.000358150498201351
1.72686963228818E+018,0.115859335121862,0.016617301215766,-0.00372677397651232,0.184247016545086,-0.016020340224246,-0.0215654998518545,0.009834177547563,0.008812534387868,0.0108924384057927,0.0183322023506204,0.00129443523584511,-0.0363812739119678,0.126068978117741,0.127535337755087,0.152003505250997,0.0756371694883549,0.0756302610208858,0.15123876450199,0.000395042025693413,0.000395042025693413,0.000467712183287465,0.000270785107485768,0.000270785107485768,0.000359252536556371
1.72686963232234E+018,0.121883504232811,0.0161589490363375,-0.00454697209765285,0.200402757108951,-0.0181620798140505,-0.0260353969746573,0.00961917631750575,0.00902047967123965,0.00967527249634248,-0.000776210160320662,0.00671972417396175,-0.0408971464272517,0.127560706660751,0.1291957905294,0.153877831171404,0.0765332845554856,0.0765262941394917,0.153030537753125,0.000393177431927399,0.000393177431927399,0.000465489706202591,0.000269708268215899,0.000269708268215899,0.000357600983092419
1.72686963235532E+018,0.128017684588813,0.0154925188084399,-0.00459228017077219,0.198013503991511,-0.0249584040100471,0.0172150524945988,0.0106632340223758,0.009208056190384,0.00813384350416735,0.02551452202137,0.0075598645231049,-0.054692067468254,0.129060801213294,0.130888814768782,0.15577434875216,0.0774347927781751,0.0774275777996259,0.154832906193682,0.000394041620649657,0.000394041620649657,0.000466607083438382,0.000270121149301858,0.000270121149301858,0.00035832228060747
1.72686963238895E+018,0.135734549148518,0.014500998015252,-0.00113523821356323,0.192260827497228,-0.0241730862716938,0.0977600192415156,0.00602942407645512,0.0131923668523135,0.00439924875153919,-0.10471060458283,0.0879004018705966,-0.0995682741208557,0.131057505584929,0.133147079928674,0.158303291997014,0.0786393008005827,0.0786289042206248,0.157237177765869,0.00039416182844192,0.00039416182844192,0.000466664220660381,0.000270245606711662,0.000270245606711662,0.000358441912498911
1.72686963242169E+018,0.141919060963992,0.0141309381500508,0.000803814784421291,0.202231705414752,-0.0125211625742974,0.0557514513305835,0.00167398306195832,0.0140991462775069,0.00210870862320567,-0.130162401397648,0.0378902444754966,-0.0681631710071726,0.132555484874646,0.134858067435808,0.160208107376902,0.0795447220627572,0.0795294563695068,0.159041240846042,0.000394293088807167,0.000394293088807167,0.000466770790238247,0.000270340723437228,0.000270340723437228,0.000358561448575432
1.72686963245555E+018,0.148037339995698,0.013910434305811,0.00113079425448851,0.199839890405586,-0.00801113793429957,0.00724702368708129,0.00125178822983507,0.0136380007081844,0.00152934204344035,-0.0358942680213685,-0.00262614961320192,-0.0172933417750454,0.134052887221982,0.136584555952276,0.162119499245702,0.0804452735472482,0.0804285944954601,0.160840262586385,0.000393150142589038,0.000393150142589038,0.00046531361486291,0.000269762595694983,0.000269762595694983,0.000357579154169368
1.72686963248876E+018,0.156138268499759,0.013831970681509,0.000476422599610534,0.202966679907943,-0.00123831070530144,-0.0191461169061985,0.00102374635329561,0.0133514482793893,0.00185276155823422,-0.0115561028154128,-0.00484793750507267,0.0105603165744409,0.136056534408673,0.138903814290932,0.164681875356561,0.0816475805696542,0.081631395073854,0.163245028838146,0.000394169392114961,0.000394169392114961,0.000466550205877736,0.000270314669252036,0.000270314669252036,0.00035845579605507
1.72686963252248E+018,0.162416232163135,0.0139022323121733,-0.000413571159413412,0.207370654650202,0.00167489427708251,-0.0276146151564586,0.00121738402109184,0.0134451566010867,0.00264906681610455,0.00234297327531907,0.00230853431131264,0.0286577958862368,0.137550642891417,0.140654238153303,0.166603088796529,0.0825439931994857,0.0825280247295591,0.165037792393037,0.00039236242849187,0.00039236242849187,0.00046426224785791,0.000269352592659372,0.000269352592659372,0.000356895731053571
1.72686963255528E+018,0.168587751403026,0.0140034544818284,-0.00118754424135424,0.201963102691467,0.00283960962887782,-0.0213114478931891,0.00123524761886573,0.013628312130638,0.003788996378153,-0.0014646677898971,0.0040732111737312,0.0361348587388795,0.139053534541184,0.142428667426725,0.168542289495625,0.0834460285762455,0.0834297548774631,0.166841149239339,0.000392783412189512,0.000392783412189512,0.000464811090608506,0.000269562467853032,0.000269562467853032,0.000357245454117582
1.72686963258879E+018,0.176563416247177,0.0143523305425994,-0.00213476674079314,0.197051277782234,0.00944956530175873,-0.0232988746875986,-0.000569117345738057,0.0123844637971318,0.00507201766009135,-0.0457819323783659,-0.0303530320498559,0.0323211569306279,0.14106031286633,0.144802876046551,0.171133832265861,0.0846490690485745,0.0846334814381429,0.169247542518148,0.000394768188641612,0.000394768188641612,0.000467359449450395,0.000270563435065345,0.000270563435065345,0.000358924844134281
1.72686963262253E+018,0.18246537540444,0.0147222090636513,-0.0030222285869575,0.195397130711191,0.0108958749640928,-0.0277746914907626,-0.00165809877599887,0.0112578476594449,0.00616456259310194,-0.0355399372144928,-0.0339769400612599,0.0356180908783341,0.142556852776049,0.146582526466598,0.173070721623862,0.0855441988567651,0.085530695309319,0.171039828144955,0.000393893780715182,0.000393893780715182,0.000466310038094951,0.000270049784744871,0.000270049784744871,0.000358147946419909
1.72686963265512E+018,0.190671557959014,0.0151647168996851,-0.0042700462406425,0.206500403968918,0.0095223526599287,-0.030397507464264,-0.00195234827086699,0.0109549300332512,0.00746246552236363,-0.00647447901672874,-0.00753347313751983,0.0315949545879238,0.144559937997824,0.14898549037773,0.17567337572926,0.0867429688478594,0.0867313965010036,0.173439164404055,0.000393747615329131,0.000393747615329131,0.00046618402781718,0.000269941230702404,0.000269941230702404,0.000357997973892216
1.72686963268882E+018,0.197460955475085,0.0154842005816778,-0.00533551780945769,0.22345457418874,0.00892033731383582,-0.0330370759234392,-0.00134703566167627,0.0112510550253009,0.00834343631953516,0.0137067710937297,0.00595612523879594,0.0290671142813003,0.146067515124114,0.150832367152752,0.177651090475386,0.0876463891109701,0.0876349444528507,0.175245810342713,0.00039541127833451,0.00039541127833451,0.000468187699168838,0.00027086692304129,0.00027086692304129,0.000359446748590588
1.72686963272266E+018,0.204418941655424,0.0159292141927061,-0.0060099445044349,0.226950237932674,0.0145844881881389,-0.0114930276517783,-0.00200714883075515,0.0108874857644121,0.00925170173810352,-0.0233343020662746,-0.0130850304253918,0.0307534749231247,0.147564624607542,0.152706188366627,0.179634749434159,0.0885438095918039,0.0885320662978364,0.177039932621528,0.000393348313725269,0.000393348313725269,0.000465478597136065,0.000269861186085716,0.000269861186085716,0.000357703333827054
1.7268696327552E+018,0.21304261974232,0.0168603298814851,-0.0034637749800317,0.211719060297238,0.0209140432279679,0.0848948231809324,0.000693614727389047,0.0132252893963458,0.0115386617829119,0.0719805081868421,0.0596568755249991,0.0629954398861116,0.149566509380324,0.155216919838455,0.18229185601445,0.0897445777406974,0.0897319801899282,0.179439794662873,0.000393516716422602,0.000393516716422602,0.000465936316354431,0.000269779538919712,0.000269779538919712,0.000357766145430483
1.72686963278902E+018,0.2198219435282,0.0174895724687109,-0.00145560814158238,0.217343041260468,0.0174586164863074,0.058147197689742,0.0044100646206453,0.0144911292254735,0.0131283187957032,0.108083839283522,0.0404336636842312,0.0451074302614859,0.151101820358713,0.157151660327649,0.184334710115355,0.0906693222924467,0.0906522870047968,0.181282945113866,0.000397465220091832,0.000397465220091832,0.000470193191848597,0.000272460507918194,0.000272460507918194,0.000361390272437369
1.72686963282183E+018,0.226574260705785,0.0179675277411639,-0.00130523807330995,0.212615001649224,0.012486659107847,-0.000267566422518961,0.00655562048060165,0.0139108722700292,0.0131770359406875,0.0732996961604336,-0.00763463843783239,-0.000545379071713186,0.152655822777689,0.15913211015414,0.186412401130414,0.0916022838695121,0.0915833698585451,0.183146130660217,0.00040877455531263,0.00040877455531263,0.000484674555101763,0.000278315953527804,0.000278315953527804,0.000371027727089585
1.72686963285509E+018,0.234345218144127,0.0183452250774321,-0.00226967870411094,0.203556023297324,0.00587145025523222,-0.0248587324166278,0.00837435666644204,0.0133119332249621,0.0126123190293486,0.0581113769932581,-0.00848878642778381,-0.0120847386958667,0.154578589577795,0.16157053036408,0.188976983972955,0.0927531730868887,0.0927356859632146,0.185449258568887,0.000392774716362268,0.000392774716362268,0.000465000417415143,0.000269213271601055,0.000269213271601055,0.000357074595718077
1.72686963288863E+018,0.240632996163971,0.0184374040471055,-0.00331287566283511,0.206539238322268,0.00020239703592426,-0.0337719882910949,0.0103902759734638,0.0132117575572774,0.0121715124883157,0.0627422521542358,-0.00548794383809958,-0.0156549802997203,0.156080740924679,0.163493736779556,0.190989625346878,0.0936534008013442,0.0936363629642673,0.187249961658736,0.000391960737155305,0.000391960737155305,0.000463886697580451,0.000268985628247399,0.000268985628247399,0.000356431744710252
1.72686963292201E+018,0.246765805714923,0.0184997013124325,-0.00445214755807366,0.194510714324114,-0.000702546044419293,-0.0338270781677733,0.0106846669080145,0.0123993391741557,0.0115999885578146,0.0199840833542379,-0.0233477581906727,-0.0166995558079205,0.157625254143541,0.165482943294352,0.193064700600123,0.0945788680426649,0.0945626333035003,0.189101562455885,0.000401744965638392,0.000401744965638392,0.000475879280823145,0.000274443413227871,0.000274443413227871,0.000364940816185327
1.72686963295518E+018,0.254023762117514,0.0185010087818551,-0.00597716185134237,0.184195802233305,-0.00297872624045538,-0.041409520097106,0.0109982919726801,0.0106164872545791,0.011341724948756,0.00957031102487111,-0.0445445125365987,-0.00499088388503542,0.159578829117665,0.167976617999142,0.1956778310691,0.0957477353689098,0.0957341920245434,0.191442243784502,0.000393465709430664,0.000393465709430664,0.000465959145383216,0.000269546232025847,0.000269546232025847,0.0003576347342903
1.7268696329887E+018,0.259525118504718,0.0184613027225859,-0.00746206007053068,0.179430190109741,-0.0038133553939182,-0.0466407514252099,0.0106103399019042,0.00878691531615283,0.0110012252689669,-0.00828842127388095,-0.0563003593164296,-0.0109589141847843,0.161093571029732,0.169910221639102,0.19770335194447,0.0966530373587981,0.0966423890080598,0.193256166277727,0.000396317730047126,0.000396317730047126,0.000469202423286388,0.00027138118501795,0.00027138118501795,0.000360206999752241
1.72686963302222E+018,0.26495863989935,0.0183670837414982,-0.00854875578563556,0.181638617636156,-0.00566214609237991,-0.0322968551590398,0.0106778978040749,0.00767003672106581,0.010751949858375,-0.000370531016613945,-0.0396793506128875,-0.00725734525511749,0.16257839971929,0.171809896690457,0.199690720632363,0.0975407133836116,0.0975325990050143,0.195034513459518,0.000393139074427353,0.000393139074427353,0.00046542720690948,0.000269525165851829,0.000269525165851829,0.000357397130741085
1.72686963305545E+018,0.272972442578036,0.0181284023395456,-0.00958483315539573,0.199832316663745,-0.00877930263034099,-0.0220732598202802,0.0110585981457585,0.00731292050726129,0.0103703046568127,0.00558362370563015,-0.0105384485541173,-0.0107771091620187,0.164586762837756,0.174427643647418,0.202403562038947,0.0987436869286144,0.0987372508513598,0.197442415628336,0.000394731644375523,0.000394731644375523,0.000467365083748659,0.000270453778222909,0.000270453778222909,0.000358789699545934
1.72686963308882E+018,0.279721928701248,0.0181714444902081,-0.00983044939680334,0.222435841597401,0.000531423416384009,0.000802571147367974,0.00850269535907833,0.00937120116698642,0.00978583994455429,-0.0678051942221078,0.0553348574946262,-0.0220034592168315,0.166091432952471,0.176451236610926,0.204467647226651,0.0996469032609444,0.0996399883796964,0.199247795727207,0.000395249680168754,0.000395249680168754,0.00046795487648602,0.000270774630001789,0.000270774630001789,0.000359249824689107
1.72686963312227E+018,0.286737411092883,0.0183701291639861,-0.00801604372143084,0.22901521030697,0.00339990309219202,0.0811324280626841,0.0104943301164475,0.00988510719301461,0.00839334369095202,0.0477838281764375,0.0105678847347523,-0.0509457096035457,0.167591932090066,0.178532814119401,0.206559849964301,0.100550930536523,0.100540579457379,0.201050315274206,0.000393290898993087,0.000393290898993087,0.000465220574947764,0.000269940764653468,0.000269940764653468,0.000357647660731322
1.7268696331556E+018,0.293314026522091,0.0184129128939969,-0.00517134759824598,0.209336348755659,0.000925109147107162,0.0860965314261527,0.0115520070789334,0.00746498968318177,0.00627697351895851,0.0293617801518419,-0.0549661169395455,-0.0639499094540546,0.169113351522183,0.180660719193678,0.208693046008133,0.10146488328191,0.101455608737965,0.202879121534783,0.000398827345502499,0.000398827345502499,0.000472231869769015,0.000272855865248502,0.000272855865248502,0.000362389799690551
1.72686963318879E+018,0.300784375528831,0.0185342994590199,-0.00402532641907658,0.182081317693638,0.003204213948723,0.0142666277236624,0.0118160305777444,0.00696752641042497,0.00492659362051118,0.00594846395331758,-0.0130273348799573,-0.0264051456175567,0.17110021987839,0.183368699202566,0.211439916945097,0.102655813913693,0.102648904635925,0.205263701936913,0.000396169050133771,0.000396169050133771,0.000469680894868773,0.000270758594887327,0.000270758594887327,0.000359825453749113
1.7268696332222E+018,0.305968590362844,0.0186876910256647,-0.00442872439972524,0.173247406595427,0.00389076531859983,-0.0151994226058222,0.0117770670968933,0.00756817163747315,0.00467544562374967,0.00133257583125117,0.0125513139797649,-0.00805614736705159,0.17258074568827,0.185345482030264,0.213464585893769,0.103543748545316,0.1035369588038,0.207039430873998,0.000383514729875489,0.000383514729875489,0.000452309018790847,0.000265155062034698,0.000265155062034698,0.000349414014722663
1.72686963325518E+018,0.312626809093192,0.0187604115134517,-0.00540459743415337,0.161281032242745,9.59274572149141E-05,-0.0231403095152822,0.0130075371204041,0.00784880686571521,0.00510504262836964,0.0340602704652964,0.00406125494703815,0.015137141863102,0.174583236379675,0.188003010757432,0.216194318137598,0.104745448673731,0.10473782783257,0.20944114004926,0.000392878495026542,0.000392878495026542,0.000465152421471556,0.000269208921222775,0.000269208921222775,0.000357105994614839
1.72686963328905E+018,0.317172428195396,0.0187796986379362,-0.00588660929588694,0.148109897921812,2.3963145123208E-05,-0.0131694349376636,0.0140871496539532,0.00774971632398724,0.00579390220679077,0.0303656526446105,-0.00113880020874408,0.0212603006687007,0.17609587168186,0.189983465599537,0.218242773440188,0.105652841482463,0.10564515103053,0.211255492414459,0.000396195908439817,0.000396195908439817,0.00046907880493529,0.000271237718390492,0.000271237718390492,0.000360048932886066
1.72686963332221E+018,0.321427957540877,0.0188869218703573,-0.00621029803807212,0.141068420108576,0.00299532472054824,-0.010380036157356,0.0138581184477862,0.00731122041955601,0.00633106802825889,-0.00168613434017168,-0.0139515587516757,0.0181053650844568,0.177587956982971,0.191911787217416,0.220250950059705,0.106547703798709,0.106540165171605,0.213045125826545,0.000394054958632453,0.000394054958632453,0.000466548929849594,0.000270033709940811,0.000270033709940811,0.000358162456001981
1.72686963335576E+018,0.325343722147514,0.0192137184574226,-0.00650245761396042,0.126401122887453,0.0100433322153754,-0.00777999767288486,0.0122708429590554,0.00604430301078818,0.00692591096731654,-0.0410941233312749,-0.0352714188423149,0.020956712446364,0.17908617529126,0.193833844647693,0.222260144857676,0.107444955867468,0.107438420338318,0.214840834759925,0.000393181429455526,0.000393181429455526,0.000465521286716429,0.000269523614133096,0.000269523614133096,0.000357388038582607
1.72686963338888E+018,0.329862782966541,0.0198393123272487,-0.00670233803930353,0.112116297109234,0.0152895746675068,-0.00546671888207729,0.0107941410003689,0.00501468576222885,0.00774741071026108,-0.0331269679748837,-0.0231832799523359,0.0197971212151817,0.181094030363583,0.196332825840701,0.224914281924901,0.108646378845306,0.108641474370988,0.217245857840074,0.000394817877869047,0.000394817877869047,0.000467341930905353,0.000270526787975277,0.000270526787975277,0.00035885812853207
1.72686963342216E+018,0.333694719645399,0.0203800297995827,-0.00712986396823358,0.130032598313559,0.016942156195311,-0.0162583320991645,0.0109950651480264,0.00542404193702506,0.00831897810318827,-0.00160951765741252,0.00634255921170399,0.01890145737899,0.182592104427924,0.198193332067503,0.226892296646597,0.109543072456531,0.109538593430999,0.219039662272887,0.000394165632205839,0.000394165632205839,0.000466606270706734,0.000270117716379567,0.000270117716379567,0.000358267614548028
1.72686963345531E+018,0.338362667768656,0.0209209143513947,-0.00765250134349408,0.152077699150901,0.0152441486340207,-0.0140492699020251,0.0124636968988257,0.00658047708155207,0.0089239143433133,0.0474405495837614,0.0352252083435187,0.0203000243558126,0.184108988438417,0.200158122437357,0.228935093993183,0.110451427296989,0.110446470510561,0.220855196860612,0.000394634401666372,0.000394634401666372,0.00046679123189927,0.000270720937323295,0.000270720937323295,0.000358805922589669
1.72686963348887E+018,0.344591816152951,0.0209808626281276,-0.00687310890392446,0.149689515132089,0.00359183038327795,0.0415389887897334,0.0144962375299271,0.0112440717557569,0.0102638621542579,-0.0126729709583949,0.0887813269013173,0.0357231974744623,0.186102460435212,0.20283059641838,0.231666335309874,0.111653219256969,0.111641629943384,0.223247262389353,0.000395636766390028,0.000395636766390028,0.000468448010987369,0.000270862216173884,0.000270862216173884,0.000359520512083668
1.72686963352232E+018,0.348886295556137,0.0213156260355797,-0.00306002749196926,0.139312847424207,0.0105903030182262,0.13188666569721,0.00675422790333879,0.00991444015797649,0.0119953756611224,-0.187524097834149,-0.0146591530019292,0.0574630394823938,0.187599878122828,0.20482464151365,0.233714081250283,0.112556207805494,0.112540969147228,0.225047265216419,0.000394298481895979,0.000394298481895979,0.000466657227015949,0.00027029358864265,0.00027029358864265,0.000358415176862105
1.72686963355649E+018,0.353006651958163,0.0218804610966231,-0.000452648034692624,0.135564841331148,0.0165652782279182,0.0755004010018014,0.00422088961058087,0.0101184209426486,0.0134258780542438,-0.104884001532853,0.00905542531256454,0.0447866321777291,0.189099393249793,0.206795775954862,0.235749956856554,0.113454224213735,0.113439945075204,0.226844139084456,0.000392954936673761,0.000392954936673761,0.000464974026183753,0.000269585021021513,0.000269585021021513,0.000357257049015832
1.72686963358857E+018,0.358668701085533,0.0223361411755126,-0.000182169618494569,0.138212667538707,0.00938931186633799,-0.00581625040575829,0.00330746628993373,0.0131625145288661,0.0136108259378474,-0.0330848139433498,0.065015600855635,-0.00438164055080479,0.191107957331,0.209446543960033,0.238480028333018,0.114661130682161,0.114642761152286,0.229251501812784,0.000389456414316938,0.000389456414316938,0.000459831763124653,0.000268281368980882,0.000268281368980882,0.00035448003848226
1.72686963362213E+018,0.362708911732994,0.022691914641993,-0.000966750648527618,0.13317125153898,0.00989708190166066,-0.0262670083499696,0.00214733643042964,0.014727217167473,0.0131431853851192,-0.0351103682118864,0.0533405314408175,-0.0150374289932162,0.192608289312757,0.211429435275879,0.240521474327948,0.11556609382176,0.115541792322014,0.231052711704688,0.000393998748915111,0.000393998748915111,0.000466492198705956,0.000269892540054344,0.000269892540054344,0.00035806466085963
1.72686963365516E+018,0.366587099061182,0.0229468061856787,-0.00195527854326019,0.128365306188418,0.00657461368368779,-0.0309246008133576,0.00187577539644002,0.0157955941553931,0.0124978461670038,-0.0153328633710224,0.039882744277461,-0.0222889454464023,0.194106598414519,0.213397507073269,0.242554167505839,0.11646899076667,0.116439693431738,0.232851372208093,0.000392505521995841,0.000392505521995841,0.000464374306154641,0.00026931614562619,0.00026931614562619,0.000356866262802151
1.72686963368847E+018,0.37164438778006,0.0229933906011457,-0.00321631953587272,0.124531735829081,-0.0017619895502935,-0.0284298037334389,0.003197269339418,0.0173093024213857,0.0114185947128851,0.0342910948817276,0.0398307624514366,-0.0262902109998129,0.196114582811833,0.216023986450269,0.245272702926225,0.11767881363316,0.117643741971604,0.235262889201754,0.00039425871992967,0.00039425871992967,0.000466582524390511,0.000270268676448864,0.000270268676448864,0.000358373774379012
