time,vx,vy,vz,vroll,vpitch,vyaw
1726869629333476353,-0.00038162712007761,0.0001323442702414468,-0.00013999547809362411,-0.00016706362657714635,-0.0006529716192744672,-0.0002632313407957554
1726869629344175473,-0.00026140446425415576,0.00011646412895061076,-0.00014055162318982184,-0.00015582813648507,-0.0001328836369793862,0.00015379724209196866
1726869629353326159,-0.00020462948305066675,5.239021993475035e-05,-0.00019196873472537845,0.00014623203605879098,6.469991785706952e-05,-0.00022895084111951292
1726869629363526532,-0.00015285862900782377,0.0001484063541283831,-0.00021411976194940507,-0.0005627368809655309,0.0004186045262031257,-0.00016113002493511885
1726869629373376234,-0.00021691947767976671,-4.3497831939021125e-05,-0.00016039583715610206,0.00034879043232649565,2.109804881911259e-05,-0.00014278768503572792
1726869629385241232,-0.0003729657910298556,-0.00012468390923459083,-0.00014816496695857495,0.0006994341383688152,-0.0006917258142493665,0.00033284505479969084
1726869629394222610,-0.0003249395522288978,-0.0001232042704941705,-0.00013596568896900862,0.0006666806875728071,-0.00031073379795998335,-0.0007881448254920542
1726869629403422671,-0.0004328817594796419,-9.188441617880017e-05,-8.380090730497614e-05,0.000264569855062291,-0.0009772571502253413,-0.00043588850530795753
1726869629413593035,-0.0004679153498727828,-3.2810810807859525e-05,-3.6594086850527674e-05,-4.525945405475795e-05,-0.0008916785009205341,-0.0010004218202084303
1726869629423160681,-0.0004517249471973628,-0.00011760286724893376,-0.0001012810826068744,0.0004988720756955445,-0.0006935065030120313,-0.0009768910240381956
1726869629433121059,-0.0003909677325282246,-6.207014666870236e-05,-0.00015446831821464002,3.882839155266993e-05,-0.00041532714385539293,-0.0008318937616422772
1726869629443559852,-0.0003252409806009382,-9.207380935549736e-05,-0.00013555007171817124,0.00010802773613249883,-0.0002759224735200405,-0.0006391126080416143
1726869629453468583,-0.00017550159827806056,5.025383870815858e-05,-0.00021284399554133415,-0.0006041197339072824,0.0003869973006658256,-0.00039475649828091264
1726869629462993245,-0.00021278644271660596,-2.613139940876863e-06,-0.00015553898992948234,-0.0002494374639354646,0.0003393958031665534,-0.00048772720037959516
1726869629473581166,-0.0003291731118224561,-1.7311640476691537e-05,-8.636221900815144e-05,-0.00014469896268565208,-0.0002456642687320709,0.00018726829148363322
1726869629483516334,-0.00037767234607599676,3.157704486511648e-05,-0.00012791954213753343,-0.00037749428884126246,-0.0006202487275004387,0.00015771598555147648
1726869629496519387,-0.0004730888467747718,8.977754623629153e-05,-0.00013072468573227525,-0.00043002457823604345,-0.0011589410714805126,0.0008346468675881624
1726869629503526756,-0.0004897605977021158,-7.001663470873609e-05,-0.00013521534856408834,0.0005805079126730561,-0.0009526139474473894,-1.984165828616824e-05
1726869629513517617,-0.0004910642164759338,-0.0002489627222530544,-0.00012249351129867136,0.001318400609306991,-0.0007994657498784363,0.00011882424587383866
1726869629523499724,-0.0004693307273555547,-0.00013097512419335544,-0.00014366187679115683,0.000330989743815735,-0.0005748367984779179,8.912169869290665e-05
1726869629533276322,-0.0005025771679356694,6.911817035870627e-05,-0.0001304760662605986,-0.0007740185246802866,-0.0006445630569942296,-0.00021921603183727711
1726869629543221756,-0.000466610275907442,2.439082891214639e-06,-0.00010776634735520929,-9.310153109254315e-05,-0.0005029085441492498,-0.0007060767966322601
1726869629553318964,-0.00044464576058089733,7.24193305359222e-05,-0.000150634630699642,-0.0002431258762953803,-0.0007801295723766088,-0.0004751777451019734
1726869629563388264,-0.0002998682903125882,0.00016772847448009998,-0.00016029374091885984,-0.00046551437117159367,-8.368591079488397e-05,-0.0003013973473571241
1726869629573180291,-0.0004342722531873733,0.0003139580658171326,-0.00015845523739699274,-0.0013819390442222357,-0.0008197030983865261,-0.0004283568705432117
1726869629582966363,-0.00047678989358246326,0.00033244231599383056,-0.0001450257550459355,-0.0011524022556841373,-0.0006377653917297721,-0.0006920653395354748
1726869629592588918,-0.00035468392889015377,0.0004164652491454035,-0.00015029706992208958,-0.0012972282711416483,-6.63556329527637e-06,-0.00016490482084918767
1726869629603477563,-0.00023582261928822845,0.0005039293901063502,-0.00015154207358136773,-0.0017651462694630027,0.0005219162558205426,0.00017576930986251682
1726869629613343940,-0.00018688740965444595,0.00040966409142129123,-2.844134360202588e-05,-0.0009126312797889113,0.0002960308629553765,0.0002767875848803669
1726869629623165063,-0.0003032501263078302,0.00039685360388830304,-6.517227302538231e-05,-0.0008134926902130246,-0.0005003929836675525,-0.0003286399587523192
1726869629634940909,-0.00033273588633164763,0.00028573916642926633,-9.207511902786791e-05,-0.00023281191533897072,-0.0005312936846166849,-1.3245182344689965e-05
1726869629644550589,-0.00027946289628744125,0.0003008827625308186,-0.00014094123616814613,-0.000615325930994004,-5.060225157649256e-05,2.1283471141941845e-05
1726869629653054801,-0.00034389691427350044,0.00020650573424063623,-0.00014260690659284592,-0.0002518741530366242,-0.00038463095552287996,-0.0005594482645392418
1726869629663044573,-0.00041100781527347863,4.49636354460381e-05,-0.00012794644862879068,0.0003561280609574169,-0.0007604456041008234,-0.0002535812382120639
1726869629673057822,-0.00042757944902405143,0.00019152899039909244,-0.00013438815949484706,-0.0006651245639659464,-0.0007965386030264199,-6.589804684153933e-07
1726869629685379364,-0.00046319368993863463,6.947672954993322e-05,-0.00019200809765607119,0.00012208338011987507,-0.0006799742695875466,-0.0002360897633479908
1726869629693892473,-0.0005162941524758935,0.00021182831551413983,-0.00019206348224543035,-0.0004831727419514209,-0.0009378769900649786,-0.0005358525668270886
1726869629703026000,-0.0005081650451757014,0.00020746146037708968,-0.00022250975598581135,-0.000227377240662463,-0.0008383119711652398,-0.00025515700690448284
1726869629712605374,-0.0004065086250193417,0.00010550612205406651,-0.00015008760965429246,5.6473716540494934e-05,-0.0004754910187330097,-0.0005589976790361106
1726869629723006499,-0.00035579773248173296,2.136399234586861e-05,-0.00012584705837070942,0.0005326581303961575,-2.9009295758442022e-05,-5.3895633755018935e-05
1726869629733218602,-0.0003290250024292618,7.045242091408e-05,-8.369365241378546e-05,0.00011595513933571056,-0.00032348648528568447,-0.0006916260463185608
1726869629743127428,-0.000485498778289184,3.097472290392034e-05,-0.00014436521450988948,5.218302248977125e-05,-0.0012036623666062951,-0.00039100131834857166
1726869629753397052,-0.0004778518923558295,1.2595767202583374e-06,-0.00016878820315469056,0.00024495547404512763,-0.0007795969722792506,-6.215761823114008e-05
1726869629763755214,-0.00032571039628237486,-3.711045064846985e-05,-0.00020850652072113007,0.0002564007882028818,8.674860146129504e-05,0.0007431720732711256
1726869629773835518,-0.00040534924482926726,4.761950549436733e-05,-0.0001352117833448574,-0.0004543924587778747,-0.0005257638986222446,0.0005805256660096347
1726869629783841850,-0.00022706059098709375,-5.689570025424473e-05,-0.00011480113607831299,0.000289836258161813,0.0002765375829767436,0.0005480918916873634
1726869629796900444,-0.00029443090897984803,-8.543620788259432e-05,-0.00013145811681170017,0.0004273636150173843,-0.0002238545275758952,-5.916159716434777e-05
1726869629803710986,-0.0003301560936961323,-2.759996641543694e-05,-9.667882841313258e-05,-0.000541388348210603,-0.0003663987445179373,-0.0001625283621251583
1726869629813671653,-0.00040946362423710525,1.721822081890423e-05,-6.573189602931961e-05,-0.000595254183281213,-0.0007107117562554777,-0.0002781840448733419
1726869629823575184,-0.00046967205707915127,0.00012928660726174712,-8.291358972201124e-05,-0.0008229027152992785,-0.0008915091166272759,-7.753229874651879e-05
1726869629836271546,-0.00038286502240225673,2.3908447474241257e-05,-0.0001910451683215797,-2.4639060939080082e-05,-0.00011795743193943053,-0.0010220707627013326
1726869629844996485,-0.00029404720407910645,-0.0001306919875787571,-0.00021685795218218118,0.0006572904530912638,-1.0988876965711825e-05,-0.0005090271006338298
1726869629853715461,-0.0003369587648194283,-0.0001350334205199033,-0.00018069187353830785,0.0002537757100071758,-0.00034066286752931774,-0.0008758976473473012
1726869629863876171,-0.0003359104157425463,-5.995280298520811e-05,-0.00012221327051520348,-0.00018440542044118047,-0.0003538245218805969,-0.000451551255537197
1726869629873873116,-0.00030116213019937277,-6.826960452599451e-05,-0.00012673797027673572,0.0001767184294294566,-0.0001876845199149102,-0.0010852881241589785
1726869629883785072,-0.0004265651514288038,-0.00020415420294739306,-0.00012714836339000612,0.0010205338476225734,-0.0007441823836416006,-0.00011400263610994443
1726869629897313605,-0.0004732071829494089,3.9936228859005496e-05,-0.00014294119318947196,-0.0005137569969519973,-0.0010097784688696265,-9.351488188258372e-06
1726869629903179294,-0.0004961296217516065,0.00010617472435114905,-9.980476170312613e-05,-0.0006523706833831966,-0.0009254622855223715,-0.00031645328272134066
1726869629913387608,-0.0005308295949362218,0.00013705909077543765,-9.331580076832324e-05,-0.0005887620500288904,-0.0010303789749741554,0.00045539860730059445
1726869629923380345,-0.00029505431302823126,0.0003099252353422344,-9.51080146478489e-05,-0.0013386774808168411,0.00021820032270625234,0.0007084796670824289
1726869629933307937,-0.0003318114613648504,0.0001040008501149714,-0.00011672577238641679,-0.00021724923863075674,9.491468517808244e-05,-3.507395604174235e-06
1726869629947088684,-0.0003385013260412961,3.655335967778228e-05,-0.00012450771464500576,0.00012343710113782436,-0.00022103720402810723,-0.0002041500702034682
1726869629953806673,-0.00027199150645174086,6.6893239818455186e-06,-0.00017768857651390135,0.00023462262470275164,-0.00010022074275184423,0.0003913956752512604
1726869629963815792,-0.00020795485761482269,7.701722643105313e-05,-0.00018498212739359587,-0.0002123211743310094,7.970376464072615e-05,-0.00011193779937457293
1726869629973632217,-0.00022271080524660647,0.00023228053760249168,-0.00014442630345001817,-0.0011241487227380276,-7.97288739704527e-05,-0.0004710222128778696
1726869629983479155,-0.0002483367279637605,0.00019393734692130238,-7.73184365243651e-05,-0.0006076141726225615,-0.0004652462084777653,-0.0005526960012502968
1726869629998364256,-0.00018821266712620854,0.00023010723816696554,-9.523474000161514e-05,-0.0006551313563250005,-0.0004089958092663437,-0.000756117922719568
1726869630003526625,-0.00023573637008666992,0.0001282211160287261,-0.00012041101581417024,-9.741484245751053e-05,-0.0004182418342679739,-0.0009087439393624663
1726869630013507662,-0.00029471714515239,0.000159654431627132,-0.00011845437984447926,-0.00018256755720358342,-0.0003287981962785125,-0.00011100945994257927
1726869630023345588,-0.000387742678867653,0.00022458037710748613,-0.00015557032020296901,-0.0006841944996267557,-0.0005801313673146069,-0.0002924478321801871
1726869630033493275,-0.0004476902831811458,0.0001608334860065952,-0.0001489752030465752,-0.0004488405247684568,-0.0005558570846915245,-7.283918239409104e-05
1726869630046038607,-0.0003535124706104398,-0.0001409064425388351,-0.0001047084660967812,0.0012158902827650309,-0.0003229198628105223,-0.0008477711817249656
1726869630053565736,-0.000404241553042084,-0.00010431897680973634,-0.00013586650311481208,0.0006155419978313148,-0.00054849439766258,-0.0014167458284646273
1726869630063372800,-0.0004084380343556404,-0.00015627667016815394,-0.00015633294242434204,0.0007035479065962136,-0.0002506120945326984,-0.00040372289367951453
1726869630073354669,-0.0003729380259755999,-6.371267227223143e-05,-0.00016406731447204947,-5.4781197832198814e-05,-0.00013677545939572155,-0.0002570807409938425
1726869630083665078,-0.0002984220627695322,-0.00020304373174440116,-0.00016830713138915598,0.000600344268605113,2.2814952899352647e-05,-0.0008665025816299021
1726869630097649132,-0.00038800950278528035,-0.00010222787386737764,-0.00014128570910543203,-5.836222499056021e-06,-0.0005193488323129714,-0.00043032088433392346
1726869630103525975,-0.0004956633201800287,-3.192343865521252e-05,-0.00012152530689490959,-0.00027284157113172114,-0.0008395037148147821,-0.0003603764344006777
1726869630113604140,-0.0004804639902431518,-0.0001348629011772573,-0.00013117707567289472,0.0004516963963396847,-0.0006807562313042581,-0.00013482080248650163
1726869630123367429,-0.00046266871504485607,-0.00010751577065093443,-0.00010930524149443954,0.0003510375099722296,-0.0007690243655815721,-0.0005801929510198534
1726869630136250430,-0.00033927327604033053,-8.704371430212632e-05,-7.782365719322115e-05,0.00020566458988469094,-0.00026861196965910494,-0.0002916941011790186
1726869630143750978,-0.0003065476194024086,-5.183863322599791e-05,-0.00020963621500413865,0.00016617127403151244,-1.0009876859840006e-05,-0.00017944321734830737
1726869630153631287,-0.00034887995570898056,-2.8999043934163637e-05,-0.00022496255405712873,-0.00015666410035919398,-0.0002935417287517339,-0.00022140872897580266
1726869630163550951,-0.0003048678918275982,-0.000134371715830639,-0.00010759590077213943,0.0003357422538101673,-0.0001851086999522522,-0.000835408631246537
1726869630173465235,-0.00028749179909937084,-2.9601453206851147e-05,-6.24892272753641e-05,-0.00027334989863447845,-0.00023471690656151623,-0.000993108726106584
1726869630183321719,-0.0002712736604735255,8.560861897422001e-05,-6.38251076452434e-05,-0.0008089850889518857,-0.00035923649556934834,-0.001049792394042015
1726869630197442119,-0.00028600930818356574,0.0001485238753957674,-8.608557254774496e-05,-0.0007216570666059852,-0.0003001958830282092,-0.0003106703225057572
1726869630203398435,-0.00036009139148518443,-4.6692606701981276e-05,-0.0001335832930635661,0.0005316048045642674,-0.0006660996004939079,3.868422209052369e-05
1726869630213641261,-0.0004336285637691617,-6.453697278629988e-05,-0.00016819953452795744,0.00030340999364852905,-0.0008750766864977777,0.0006714562769047916
1726869630224000630,-0.00038205768214538693,4.149220694671385e-05,-0.00018030928913503885,-0.00037518961471505463,-0.0003091073303949088,0.00031352302175946534
1726869630233205926,-0.0004239288391545415,0.00011052298214053735,-0.00021941273007541895,-0.0005593620589934289,-0.0005979277775622904,0.0002237890294054523
1726869630243196132,-0.00036664429353550076,-2.0911942556267604e-05,-0.00023007055278867483,5.618479917757213e-05,-7.109732541721314e-05,4.936646655551158e-05
1726869630253104993,-0.00042081577703356743,-0.00020870810840278864,-0.00017821650544647127,0.0008499937248416245,-0.000544420094229281,-0.0002314931043656543
1726869630263647530,-0.00024071475490927696,-0.00023718902957625687,-0.00015168031677603722,0.0007933014421723783,0.00027255769236944616,5.342360964277759e-05
1726869630273308303,-0.00025106739485636353,-0.00024712327285669744,-7.192668272182345e-05,0.0006901624728925526,-3.8462792872451246e-05,0.00048723191139288247
1726869630283452432,-0.00012712948955595493,-0.00017489941092208028,-9.02733881957829e-05,9.736479114508256e-05,0.0005557459662668407,-7.93954313849099e-05
1726869630295646531,-0.00013592964387498796,-0.00024585993378423154,-0.0001224679872393608,0.00039936392568051815,0.0005990941426716745,-0.00018618276226334274
1726869630303736470,-0.00016326633340213448,-0.0001118403670261614,-0.00013929240230936557,-0.00018348250887356699,0.00026173211517743766,2.470665094733704e-05
1726869630313597886,-0.0001263767044292763,-0.0001751669478835538,-0.00023796226014383137,0.00023679618607275188,0.000558097381144762,-0.00023170582426246256
1726869630323589467,-0.00026555891963653266,-0.00015709192666690797,-0.00022330704086925834,6.784174911445007e-05,-0.0002988290216308087,-0.0008157585398294032
1726869630334660193,-0.0003870330983772874,-0.00021233453298918903,-0.00017436766938772053,0.00038968014996498823,-0.0008056832593865693,-0.0011731077684089541
1726869630345821991,-0.0002868922892957926,-0.00011386050755390897,-0.0001252827642019838,1.2245313882885966e-05,-0.0003624022356234491,-0.0005022331024520099
1726869630353529577,-0.00017069402383640409,-4.184030331089161e-05,-9.390454943059012e-05,-0.0002355257311137393,0.00015695155889261514,-0.00015736142813693732
1726869630363593795,-0.00015383318532258272,-4.632811760529876e-05,-8.455647912342101e-05,-8.7188724137377e-05,0.0002613327815197408,0.00012495370174292475
1726869630373490556,-0.0002529943594709039,-6.455054972320795e-05,-0.00010090818250318989,0.00017971082706935704,-0.00021688267588615417,0.0001587046281201765
1726869630383622847,-0.00027114315889775753,-8.425017585977912e-05,-7.948729762574658e-05,0.00017122914141509682,-0.00045992041123099625,-0.00027154546114616096
1726869630396864442,-0.00012416861136443913,-9.981537732528523e-05,-0.00011824895773315802,-5.3952000598656014e-05,0.00039841269608587027,0.0006648388225585222
1726869630403358013,-0.0002400050580035895,6.576080340892076e-05,-0.00011807082046288997,-0.0008758383337408304,-0.0003084302297793329,0.00046850770013406873
1726869630413588797,-0.0001846972299972549,-5.064408924226882e-06,-0.00016549529391340911,-6.752688204869628e-05,5.285454972181469e-05,0.0004881575587205589
1726869630423375436,-0.000214175641303882,6.587175448657945e-05,-0.00014652610116172582,-0.0005122215952724218,-0.0002743889926932752,0.00010945919348159805
1726869630434079855,-0.00016493367729708552,-4.490907485887874e-06,-0.00012566930672619492,-2.76431660495291e-06,0.0002746425452642143,0.00013869028771296144
1726869630445704801,-0.00014313911378849298,-5.578955097007565e-05,-0.00012257325579412282,0.00010916950122918934,0.000334539741743356,-0.0005810311995446682
1726869630453517575,-4.199659815640189e-05,-0.00011419341899454594,-0.00011005529813701287,0.00041079564834944904,0.0006437393603846431,-0.0014875528868287802
1726869630463534171,2.000708263949491e-05,-2.990856728501967e-06,-0.00010685290908440948,-0.0002913815260399133,0.0007626130827702582,-0.00048227410297840834
1726869630473567096,-7.780359010212123e-05,4.024666122859344e-05,-0.00011063890997320414,-0.00043203201494179666,0.00018336337234359235,0.00020563721773214638
1726869630484403520,-0.0001147775401477702,-4.0878330764826387e-07,-0.00015048624482005835,-0.0001076602129614912,3.678690336528234e-05,-0.00035832030698657036
1726869630495730541,-0.00012534037523437291,-0.00011977812391705811,-0.00013956047769170254,0.0004997637588530779,2.1470073988894e-05,3.9706450479570776e-05
1726869630503960332,-0.00020170945208519697,-0.00015364278806373477,-0.00016379175940528512,0.0004927643458358943,-0.00029820052441209555,-0.00019849505042657256
1726869630513452423,-0.00019831671670544893,-0.0001466331013944,-0.00017572350043337792,0.0002504981239326298,-0.00022280681878328323,-0.0005122423754073679
1726869630523343136,-0.00016417447477579117,-0.00016831076936796308,-0.00024331736494787037,0.000237956628552638,5.614880865323357e-05,-0.0007875896408222616
1726869630535224714,-0.0001402115449309349,-0.00023112838971428573,-0.0001966064446605742,0.0005766829126514494,5.9359954320825636e-05,0.0003164930094499141
1726869630543208657,-4.227950194035657e-05,-0.0001295424299314618,-0.00017235413542948663,-0.00013453606516122818,0.0004270741774234921,-0.0004100873484276235
1726869630553484044,1.9820703528239392e-05,6.218229100340977e-05,-0.0001320564333582297,-0.0009779368992894888,0.000583009619731456,-0.00028640267555601895
1726869630563629986,0.00010352306708227843,-1.0359612133470364e-05,-0.00012501141463872045,-0.00020949546888004988,0.0009524479974061251,9.235071047442034e-05
1726869630573562272,5.1590246584964916e-05,-0.00020433773170225322,-5.9513215092010796e-05,0.0008698194287717342,0.00039117783308029175,-0.00020679435692727566
1726869630590194193,0.00010754312097560614,-0.0003046440542675555,-0.00013313601084519178,0.0010426401859149337,0.0004718824347946793,-9.586673695594072e-05
1726869630593468726,0.00012507793144322932,-0.0002192722458858043,-0.0001368248776998371,0.00046212520101107657,0.0005200626910664141,-3.4384844184387475e-05
1726869630603694417,-5.918088572798297e-05,-0.00024762627435848117,-0.00014748572721146047,0.0006525960634462535,-0.0003895577974617481,-0.000575514801312238
1726869630613421630,-0.00011833508324343711,-0.0002710857370402664,-0.0001732373348204419,0.0006762852426618338,-0.00012302142567932606,-0.00043119481415487826
1726869630623344745,-0.00010021253547165543,-0.00034748477628454566,-0.0001845233782660216,0.0007572139729745686,0.00017145788297057152,-4.1963729017879814e-05
1726869630634194650,-6.583308277186006e-05,-0.000240255962125957,-0.00013417260197456926,0.00027526941266842186,0.0002110875939251855,-9.180352208204567e-05
1726869630645452694,-1.4950239346944727e-05,-0.00012708142457995564,-0.00013433254207484424,-0.00016892531129997224,0.00041545121348463,0.0004412733542267233
1726869630652949968,0.00010011538688559085,-0.00025368048227392137,-0.00011645751510513946,0.0005144780734553933,0.0012059332802891731,0.0003066308854613453
1726869630663586915,-3.4984837839147076e-05,-0.00027366442373022437,-0.0001082054222933948,0.0005711033591069281,6.292787293205038e-05,0.00045055916416458786
1726869630673663141,6.234860393306008e-06,-0.00019467230595182627,-6.784637662349269e-05,0.0003675111220218241,0.0003175766032654792,-0.0003676967171486467
1726869630683413276,1.8020724382949993e-05,-6.380327977240086e-05,-0.0001605529832886532,-9.946946374839172e-05,0.0003573523717932403,0.0003275026974733919
1726869630697619652,1.6606725694146007e-05,-6.424200546462089e-05,-0.00020022389071527869,-0.00021741043019574136,0.0006541277980431914,0.0009292132453992963
1726869630703322588,1.7047782421286684e-06,-7.294824899872765e-05,-0.00019589683506637812,8.922194683691487e-05,0.0004205051518511027,0.00023671450617257506
1726869630712800018,2.925869011960458e-05,2.3928474547574297e-05,-0.00020759768085554242,-0.000343821186106652,0.0004505288670770824,-0.00032581412233412266
1726869630723394689,8.047351002460346e-05,6.266661512199789e-05,-0.00024661284987814724,-0.0002465513243805617,0.0009048562496900558,-0.00033496262039989233
1726869630734154282,7.506874680984765e-05,8.005645213415846e-06,-0.0002058877726085484,-1.0958940947602969e-05,0.0007740435539744794,0.0004894710145890713
1726869630746400874,7.747579365968704e-05,5.9000285546062514e-05,-0.00011228107177885249,-0.00040688517037779093,0.0005440404638648033,0.00041371071711182594
1726869630753442492,1.1376498150639236e-05,0.00010361499153077602,-9.199116902891546e-05,-0.0005316156893968582,-3.5251730878371745e-05,0.0008544288575649261
1726869630763563701,0.00010262499563395977,5.720086846849881e-05,-2.924076034105383e-05,0.00012005036842310801,0.00038446238613687456,0.0010875262087211013
1726869630773715025,4.373971023596823e-05,0.00012339909153524786,-0.0001489369460614398,-0.0003891107626259327,-3.6564262700267136e-05,0.0006718055228702724
1726869630784600346,-8.751594577915967e-05,0.00019247131422162056,-0.00016753973613958806,-0.000558998144697398,-0.00041956902714446187,0.0009166240342892706
1726869630795846043,5.6949393183458596e-05,0.00017248817312065512,-0.0001972213649423793,-0.0005410364829003811,0.0005321908975020051,0.00010660922998795286
1726869630803689661,3.574051152099855e-05,0.0002597109996713698,-0.00010136538912774995,-0.0009151623817160726,0.00021393972565419972,0.00019332650117576122
1726869630815631936,7.958970672916621e-05,0.00013054079317953438,-0.00017616769764572382,-9.737498658068944e-06,0.0006568141398020089,0.0005434415070340037
1726869630823732838,-4.2655301513150334e-05,2.0856992705375887e-05,-0.00019228800374548882,0.0001452434662496671,-3.23526983265765e-05,0.00010071865108329803
1726869630833649749,-2.5049394025700167e-05,0.00010587132419459522,-0.00020695182320196182,-0.0003156286256853491,0.00017680269957054406,-0.0001667402102611959
1726869630847501670,0.00010548602585913613,2.7691806181451284e-08,-0.00019837403669953346,0.0002335141325602308,0.0007112311432138085,0.0002101034770021215
1726869630853782584,-1.7597682017367333e-05,-0.00011049573367927223,-0.00015288410941138864,0.0007782378233969212,0.0002090260968543589,0.00036017445381730795
1726869630863870897,-2.5515815650578588e-05,-7.614069909323007e-05,-0.00010764125181594864,0.00034926587250083685,6.106118235038593e-05,4.7885954700177535e-05
1726869630873675791,5.4903044656384736e-05,-4.1427454561926425e-05,-0.00010304604802513495,8.23669251985848e-05,0.0005291687557473779,-0.0003194754244759679
1726869630885817218,3.480281156953424e-05,-3.091311009484343e-05,-0.00021059997379779816,0.000130837011965923,0.000576133606955409,-0.0003561413614079356
1726869630894642972,0.00012936261191498488,-7.59556278353557e-05,-0.00021633395226672292,0.00039036397356539965,0.0010593186598271132,0.00029659949359484017
1726869630903480138,-9.387215686729178e-05,-0.00019716008682735264,-0.00013942654186394066,0.0010292921215295792,-0.00044099666411057115,0.00019073595467489213
1726869630913547120,-0.0002246654185000807,-3.1877748369879555e-06,-0.00013740708527620882,-8.879754750523716e-05,-0.0005728498217649758,0.00031404217588715255
1726869630923577500,-0.00027005025185644627,2.06648328457959e-05,-0.00013594506890513003,-2.2856813302496448e-05,-0.000509487057570368,0.00036655395524576306
1726869630933480443,-0.00016929580306168646,-2.111151388817234e-06,-0.00016952940495684743,-0.00011758456821553409,6.785242294427007e-05,0.0004381742619443685
1726869630947994767,-0.00010224685684079304,0.00010950616706395522,-0.00015206373063847423,-0.0005824323161505163,0.00020121205307077616,7.641626143595204e-05
1726869630953595884,-0.00026308311498723924,0.00013240662519820035,-0.00013595027849078178,-0.0005980225978419185,-0.00046148893306963146,-0.00011410912702558562
1726869630963623560,-0.00026355378213338554,0.0001727861090330407,-0.00017454659973736852,-0.0006571762496605515,-0.0001520017976872623,-0.00038463014061562717
1726869630973729295,-0.0002563500020187348,5.497195525094867e-05,-0.0001390192046528682,-6.126782682258636e-05,-4.2905954614980146e-05,0.00039513426600024104
1726869630984080825,-0.00021225036471150815,-2.4523282263544388e-05,-0.0001591082982486114,0.00019631242321338505,0.00017364503582939506,0.0003898284921888262
1726869630999843611,-0.0001610857725609094,0.0001367917429888621,-0.00015184296353254467,-0.0007630427717231214,0.00045420104288496077,-0.0003705998242367059
1726869631003614876,-0.0002650409296620637,0.0001344928750768304,-0.00014991319039836526,-0.0006348809110932052,-0.00012148266250733286,-0.0002157633425667882
1726869631013659011,-0.00020431133452802896,-9.725444215291645e-06,-9.694149775896221e-05,0.00022806698689237237,3.013317473232746e-05,0.0003337369707878679
1726869631023468656,-0.0001752007519826293,4.4516440539155155e-05,-0.00012941203021910042,-0.0003744558780454099,2.4894645775930258e-06,0.000534804305061698
1726869631033278005,-0.00018689854186959565,0.00012802153651136905,-6.392189970938489e-05,-0.0009091696119867265,1.3103342098474968e-05,7.001812264206819e-06
1726869631043218925,-0.00011538028047652915,2.687045343918726e-05,-0.00012488059292081743,-0.00029656357946805656,0.0006209620041772723,-0.0005344448727555573
1726869631053646927,3.87520958611276e-05,5.819382568006404e-05,-0.0001292800880037248,-0.0003143140347674489,0.0010825180215761065,-0.0003241575032006949
1726869631063514226,0.00015143476775847375,-0.00012259349750820547,-0.0001510756410425529,0.0007929950370453298,0.0011555904056876898,0.00010487948020454496
1726869631073597535,0.0001427660754416138,-0.00014532481145579368,-0.00021291180746629834,0.000743816199246794,0.0009824414737522602,0.00019813085964415222
1726869631083519699,0.0001670195342740044,6.818215479142964e-05,-0.0002506353775970638,-0.000569948460906744,0.0011445882264524698,-0.00041889894055202603
1726869631093203115,4.424187500262633e-05,-4.567011274048127e-05,-0.0001808811939554289,7.047107646940276e-05,0.00042195586138404906,5.0439717597328126e-05
1726869631103466052,9.368218888994306e-05,-9.380929986946285e-05,-0.00017356373427901417,0.00031500583281740546,0.0007611283217556775,6.811726052546874e-05
1726869631113725165,4.2888717871392146e-05,1.708484887785744e-05,-0.00017519347602501512,-0.00030760240042582154,0.00017554564692545682,-0.0002805394178722054
1726869631123821894,0.00010273156658513471,3.4429613151587546e-05,-0.00014134269440546632,-0.00020145473536103964,0.00035913308965973556,4.419233664521016e-05
1726869631133412309,6.755728099960834e-05,-8.100380364339799e-05,-0.00010465288505656645,0.0005401976522989571,0.0002878001832868904,-0.0003875466645695269
1726869631145870020,6.796536763431504e-05,-0.00020795754971913993,-0.00012101246102247387,0.0007703526061959565,0.00037138801417313516,-0.0002914054784923792
1726869631153308922,-5.1506125601008534e-05,-0.00029506272403523326,-0.00011757724132621661,0.0010964482789859176,-0.00011633339454419911,-7.13905828888528e-05
1726869631163473151,-6.452416710089892e-05,-0.00018185091903433204,-0.0001442250213585794,0.0005067785969004035,5.466115544550121e-05,0.0003111133992206305
1726869631173470704,-0.00012344396964181215,-0.00018953002290800214,-0.00017675478011369705,0.0005482273991219699,-0.00010125062544830143,-0.00012662970402743667
1726869631183808156,-0.0002311900316271931,-0.00019902517669834197,-0.00018917025590781122,0.0003549942630343139,-0.0004356338467914611,-0.0008086859015747905
1726869631197305243,-4.395890573505312e-05,-0.0002565753529779613,-0.000195058441022411,0.0006761798285879195,0.0008555739186704159,-0.00017362837388645858
1726869631203505605,-6.467150524258614e-05,-6.674926407868043e-05,-0.0001794335839804262,-0.0003960547619499266,0.0004646535962820053,0.0002644359483383596
1726869631213900497,-0.0001072273007594049,-5.002495527151041e-05,-0.00017869802832137793,-0.00043372082291170955,5.852033427800052e-05,-0.00041079631773754954
1726869631223724268,-5.646366480505094e-05,-0.00013086057151667774,-0.0001406108494848013,8.950156188802794e-05,0.0002921693376265466,0.00032580902916379273
1726869631233676095,-0.0001283996389247477,-0.00015270097355823964,-0.00013132004824001342,0.0003516440046951175,-0.00022422958863899112,0.0003857904812321067
1726869631244023633,-1.7149353880085982e-05,-0.00010949470015475526,-0.00010041503992397338,4.485811950871721e-05,0.00035478867357596755,-0.00012322451220825315
1726869631253220103,-6.716660573147237e-05,-7.231452036648989e-05,-0.00018967586220242083,0.00010230681073153391,0.00026539224199950695,-0.0002544687013141811
1726869631263720789,-4.207655001664534e-05,-2.1024996385676786e-05,-0.0002461870317347348,-0.0001431301498087123,0.00040396503754891455,3.424541091590072e-06
1726869631274747090,-0.00011016482312697917,5.0900289352284744e-05,-0.00014004278637003154,-0.0005844974657520652,-0.00027515582041814923,-8.570985664846376e-05
1726869631284175975,-0.00012764244456775486,5.807514025946148e-05,-0.00015937804710119963,-0.0004249831836204976,-0.0003699539811350405,7.205816655186936e-05
1726869631297259061,0.00047184014692902565,2.6031055313069373e-05,-0.0001857857860159129,-0.00011104794248240069,4.388693560031243e-05,0.00029442174127325416
1726869631303309574,0.0016050287522375584,2.271149423904717e-05,-0.0003377204411663115,-0.00014272922999225557,-0.000389271997846663,-0.00011791833094321191
1726869631313537708,0.003332223743200302,0.00017489837773609906,-0.0005705936346203089,-0.0009930607629939914,-0.002399252727627754,0.00014412676682695746
1726869631323459071,0.005869697313755751,0.00016439911269117147,-0.0008071415941230953,-0.0005620104493573308,-0.004607567563652992,-0.00041051150765269995
1726869631333587008,0.008657594211399555,-5.81552812946029e-05,-0.0008959492552094162,0.0008046847651712596,-0.007311302237212658,-0.000312899675918743
1726869631347476105,0.012123722583055496,-0.00010093113814946264,-0.0009064223268069327,0.0009971853578463197,-0.008504682220518589,0.00048800872173160315
1726869631353407606,0.016244297847151756,-7.936380279716104e-05,-0.0009930110536515713,0.0008999527199193835,-0.007674820255488157,0.0015486492775380611
1726869631363503263,0.020898913964629173,9.890101864584722e-06,-0.0011275655124336481,0.00014051907055545598,-0.005662221927195787,0.0014456951757892966
1726869631373671838,0.024767085909843445,-0.00025532490690238774,-0.0012830826453864574,0.0016044002259150147,-0.005316407885402441,0.0019515620078891516
1726869631383321267,0.028664644807577133,-0.000452803767984733,-0.0014181295409798622,0.002606017980724573,-0.003226424567401409,0.002879986073821783
1726869631395972502,0.033212561160326004,-0.0003340192779432982,-0.001642212737351656,0.002244463888928294,0.003185129491612315,0.0031714728102087975
1726869631403430417,0.037066973745822906,4.2782728996826336e-05,-0.0019996482878923416,0.0007104923133738339,0.0065589286386966705,0.003534743096679449
1726869631413682792,0.04048360139131546,-2.5702061066112947e-06,-0.002413675654679537,0.0019620053935796022,0.0076210168190300465,0.005191182252019644
1726869631423555693,0.043715715408325195,5.473350756801665e-05,-0.0026118503883481026,0.0022643960546702147,0.007416136097162962,0.006031210534274578
1726869631433287777,0.04624710977077484,0.00022301521676126868,-0.0028325605671852827,0.002392830792814493,0.005533955525606871,0.007101133931428194
1726869631446973637,0.04847688972949982,0.0005427008145488799,-0.0030518523417413235,0.00131570256780833,0.005601342301815748,0.008173282258212566
1726869631453351047,0.05005253478884697,0.0004003534559160471,-0.0033118671271950006,0.0027415177319198847,0.005598037037998438,0.009062793105840683
1726869631463416619,0.051902346312999725,0.00035228434717282653,-0.003665497526526451,0.0047658104449510574,0.008328728377819061,0.01009263377636671
1726869631473685703,0.05354764312505722,0.00023392359435092658,-0.004135382827371359,0.006015449296683073,0.009770549833774567,0.011171042919158936
1726869631485054155,0.05455195531249046,0.0003942671755794436,-0.00454862043261528,0.0052525694482028484,0.008752191439270973,0.01117715798318386
1726869631495134936,0.05511350929737091,0.0005705774528905749,-0.004514981526881456,0.004863087087869644,0.005731995217502117,0.01093581598252058
1726869631503411600,0.056481603533029556,0.0005812261952087283,-0.0040954421274363995,0.005864327773451805,0.005877058021724224,0.010633816942572594
1726869631513338753,0.05644657835364342,0.000549155636690557,-0.0035411955323070288,0.006000219378620386,0.004702416714280844,0.010400563478469849
1726869631537273749,0.05554042384028435,0.000432224158430472,-0.0029428242705762386,0.005666594486683607,0.0037375870160758495,0.009867118671536446
1726869631538287038,0.05432683601975441,0.0010084842797368765,-0.0025981562212109566,0.0012317417422309518,0.006344072986394167,0.009525910019874573
1726869631546158020,0.053129538893699646,0.0013249976327642798,-0.0028129885904490948,-0.0009958570590242743,0.00821436382830143,0.009214121848344803
1726869631553501138,0.05254247784614563,0.0013455393491312861,-0.00331490277312696,-0.0013951093424111605,0.008655001409351826,0.008520237170159817
1726869631563447798,0.05325096845626831,0.0012259043287485838,-0.0038404827937483788,-0.00024831670452840626,0.005357184913009405,0.006972881034016609
1726869631573636869,0.05619547516107559,0.0014538358664140105,-0.004698808770626783,-0.0011506207520142198,0.0007920083007775247,0.005472077522426844
1726869631583956063,0.060455016791820526,0.0025414314586669207,0.000997100374661386,0.00016877894813660532,-0.002332444069907069,0.005492584314197302
1726869631593386194,0.07105407863855362,0.006830004975199699,0.04000961780548096,0.013253535144031048,-0.012173036113381386,0.0040167514234781265
1726869631603651471,0.07611143589019775,0.015393701381981373,0.05580899491906166,0.00542921619489789,-0.017792265862226486,-0.001685794093646109
1726869631613630273,0.0785924419760704,0.022720929235219955,0.04338878020644188,-0.021840142086148262,-0.03584018722176552,-0.010122514329850674
1726869631623660252,0.08235132694244385,0.023869210854172707,0.02543262206017971,-0.02051936648786068,-0.0373961478471756,-0.014312449842691422
1726869631633970355,0.08527180552482605,0.024818113073706627,0.010600999929010868,-0.024699881672859192,-0.01906861551105976,-0.013182336464524269
1726869631647664404,0.08822479844093323,0.028090137988328934,-0.003359417663887143,-0.040785543620586395,-0.005333415698260069,-0.005001767538487911
1726869631653670683,0.09474106132984161,0.03096603974699974,-0.013416562229394913,-0.03938787057995796,0.012044181115925312,0.011194814927875996
1726869631663666124,0.10581250488758087,0.03268582001328468,-0.020051369443535805,-0.02671106532216072,0.029872726649045944,0.023907329887151718
1726869631673892781,0.11535616964101791,0.03387605398893356,-0.022133415564894676,-0.01419858168810606,0.04097166284918785,0.02571830339729786
1726869631684218520,0.11925486475229263,0.034114398062229156,-0.0190126970410347,-0.0040614185854792595,0.044700540602207184,0.02486230991780758
1726869631699737372,0.12253835052251816,0.03391952067613602,-0.014688453637063503,0.0011440084781497717,0.04802383854985237,0.022816425189375877
1726869631703522509,0.12472498416900635,0.0329340398311615,-0.011014275252819061,0.011732456274330616,0.04717335104942322,0.020419420674443245
1726869631713858114,0.1265975534915924,0.03321072459220886,-0.010013474151492119,0.024942919611930847,0.04195769503712654,0.022128166630864143
1726869631723793779,0.127995103597641,0.03420616313815117,-0.010350318625569344,0.041385531425476074,0.032972127199172974,0.024859068915247917
1726869631733762750,0.12898869812488556,0.03502720966935158,-0.01127665862441063,0.055356498807668686,0.021171940490603447,0.02933616191148758
1726869631747085106,0.1302758753299713,0.03521926328539848,-0.011886704713106155,0.06149952486157417,0.01834273897111416,0.03247685357928276
1726869631753616296,0.12968498468399048,0.03510627895593643,-0.011799467727541924,0.04585898295044899,0.015332040376961231,0.03427525609731674
1726869631763571746,0.12842290103435516,0.03454936295747757,-0.011325853876769543,0.02752513438463211,0.022250179201364517,0.03560560941696167
1726869631773540731,0.12579742074012756,0.03407621756196022,-0.011993706226348877,0.01918368972837925,0.020171230658888817,0.034353695809841156
1726869631783757559,0.12125646322965622,0.033527735620737076,-0.01344577968120575,0.0180242620408535,0.01022870559245348,0.03275531157851219
1726869631799333273,0.12218107283115387,0.033906176686286926,-0.016977861523628235,0.017691031098365784,0.004106346517801285,0.034013811498880386
1726869631803571784,0.12773121893405914,0.03581587225198746,-0.02122172713279724,0.0027884256560355425,-0.007290615234524012,0.033826641738414764
1726869631813917577,0.1325877606868744,0.03766215220093727,-0.022989626973867416,-0.017071662470698357,-0.025963855907320976,0.03595557436347008
1726869631824167443,0.13473445177078247,0.03960679471492767,-0.021114956587553024,-0.03907424956560135,-0.034600239247083664,0.038017529994249344
1726869631834108316,0.13602857291698456,0.04202054813504219,-0.017418282106518745,-0.06264912337064743,-0.027043523266911507,0.039262805134058
1726869631850002292,0.13729214668273926,0.04265189170837402,-0.013788536190986633,-0.0665091723203659,-0.005855088122189045,0.04087620601058006
1726869631853754881,0.1385221630334854,0.04232170432806015,-0.01091786939650774,-0.05307416617870331,0.0035617954563349485,0.039044324308633804
1726869631864005668,0.14035241305828094,0.040892232209444046,-0.010279610753059387,-0.021255094558000565,0.0052752988412976265,0.03844113647937775
1726869631874252557,0.14268366992473602,0.038498397916555405,-0.01128398161381483,0.019830696284770966,0.008346798829734325,0.03765855357050896
1726869631883686381,0.1468435823917389,0.037068989127874374,-0.01515819039195776,0.045391060411930084,0.0028120719362050295,0.03585432842373848
1726869631899275958,0.15139326453208923,0.036353856325149536,-0.020787296816706657,0.05717321112751961,-0.0038568235468119383,0.03583015501499176
1726869631903659215,0.15871025621891022,0.03687243536114693,-0.026860374957323074,0.04981685429811478,-0.0052401162683963776,0.037484053522348404
1726869631913947135,0.16459980607032776,0.03754829987883568,-0.031332410871982574,0.03414275497198105,0.00228561251424253,0.04032352566719055
1726869631923593270,0.16983947157859802,0.03803866356611252,-0.03277204930782318,0.012358387932181358,0.005212930031120777,0.046283818781375885
1726869631934269422,0.17948617041110992,0.03992810472846031,-0.036105502396821976,-0.011121892370283604,0.023138297721743584,0.05054699257016182
1726869631951024616,0.18197013437747955,0.04111572727560997,-0.032840341329574585,-0.03258128836750984,0.004724235739558935,0.052794165909290314
1726869631953958112,0.1764475554227829,0.04731709882616997,-0.010277558118104935,-0.10150886327028275,-0.03457188233733177,0.057897280901670456
1726869631963782736,0.1687309294939041,0.048146236687898636,0.03318793699145317,-0.04341293126344681,-0.008540754206478596,0.07667022943496704
1726869631974032902,0.1633545458316803,0.04876670613884926,0.0778900682926178,0.05422056466341019,0.0917368233203888,0.09377098083496094
1726869631984330432,0.15927070379257202,0.04523702338337898,0.1051473319530487,0.12285072356462479,0.16148613393306732,0.10786473751068115
1726869632000863379,0.1609049141407013,0.04226445406675339,0.1115017756819725,0.1721583753824234,0.16311165690422058,0.11447475105524063
1726869632003521931,0.1691700518131256,0.04174444079399109,0.10460048913955688,0.1317901611328125,0.13566315174102783,0.11114365607500076
1726869632013867059,0.17612367868423462,0.03831144794821739,0.087499238550663,0.08627081662416458,0.1032918319106102,0.08930948376655579
1726869632023525255,0.1798478662967682,0.030824977904558182,0.06120145320892334,0.06949439644813538,0.05278171971440315,0.0619836188852787
1726869632034466651,0.18328122794628143,0.02597540244460106,0.03488263860344887,0.04594707861542702,0.021139338612556458,0.02797592431306839
1726869632045018082,0.18453557789325714,0.023225555196404457,0.014463009312748909,-0.00045895850053057075,-0.007636547554284334,0.0014997811522334814
1726869632053679777,0.18472906947135925,0.01966673880815506,-0.0014674367848783731,-0.028110546991229057,-0.019696112722158432,-0.01412508636713028
1726869632063819591,0.1851567029953003,0.01788555085659027,-0.010160831734538078,-0.06061143800616264,-0.017661381512880325,-0.022573934867978096
1726869632073806919,0.18668723106384277,0.016203124076128006,-0.015195587649941444,-0.07094216346740723,-0.002970878966152668,-0.02605200558900833
1726869632083751800,0.18746337294578552,0.013414479792118073,-0.018447525799274445,-0.04893971607089043,0.008559129200875759,-0.026720035821199417
1726869632093200706,0.18909481167793274,0.010130029171705246,-0.021027088165283203,-0.015815701335668564,0.017797322943806648,-0.026993947103619576
1726869632105100164,0.189389169216156,0.006975794676691294,-0.023030858486890793,0.007490817457437515,0.019453512504696846,-0.029154280200600624
1726869632113891334,0.18999193608760834,0.0042085107415914536,-0.024306869134306908,0.021683137863874435,0.023680785670876503,-0.03408489748835564
1726869632123177167,0.1900617480278015,0.001126378308981657,-0.025618134066462517,0.036021050065755844,0.020731419324874878,-0.039998725056648254
1726869632133803162,0.1891331672668457,-0.0006962243351154029,-0.024448228999972343,0.034375645220279694,0.015021509490907192,-0.04421362280845642
1726869632151647157,0.18821978569030762,-0.0014501456171274185,-0.02165188081562519,0.021661750972270966,0.005650151986628771,-0.04515714943408966
1726869632153610417,0.18698690831661224,-0.0030963364988565445,-0.020668096840381622,0.022449739277362823,-0.006687415298074484,-0.040139589458703995
1726869632163952709,0.18374086916446686,-0.004849014803767204,-0.01910068839788437,0.030999397858977318,-0.015002100728452206,-0.033802129328250885
1726869632173773415,0.1777997761964798,-0.006178680341690779,-0.018016032874584198,0.037236545234918594,-0.010777246206998825,-0.030726490542292595
1726869632184135596,0.17320488393306732,-0.008425518870353699,-0.021026715636253357,0.046549879014492035,-0.027206066995859146,-0.028405722230672836
1726869632199377851,0.17459554970264435,-0.010325523093342781,-0.025354787707328796,0.04356072098016739,-0.03460973501205444,-0.030162429437041283
1726869632203424979,0.1748943328857422,-0.011160735040903091,-0.030660266056656837,0.03534746170043945,-0.03744861111044884,-0.0350835807621479
1726869632213447263,0.1742352545261383,-0.01248347107321024,-0.02949005737900734,0.040663063526153564,-0.032889045774936676,-0.03965866565704346
1726869632223443131,0.17343945801258087,-0.013777484185993671,-0.025332648307085037,0.04585733264684677,-0.02055269293487072,-0.04081668332219124
1726869632233611233,0.17470356822013855,-0.015420113690197468,-0.022068453952670097,0.04963570088148117,-0.011954315938055515,-0.036767520010471344
1726869632248669784,0.17560896277427673,-0.01564982533454895,-0.019022010266780853,0.0400729700922966,-0.00875962246209383,-0.03416642174124718
1726869632253394665,0.17584124207496643,-0.015201983042061329,-0.016737358644604683,0.026230372488498688,0.003006213577464223,-0.035246167331933975
1726869632263381597,0.18061433732509613,-0.01581501215696335,-0.015980619937181473,0.01674387790262699,0.016412382945418358,-0.03636493161320686
1726869632273757689,0.18694373965263367,-0.016114767640829086,-0.020214786753058434,0.007255380041897297,0.010601978749036789,-0.03716546297073364
1726869632284295383,0.19580070674419403,-0.016335196793079376,-0.0242775846272707,4.607918162946589e-05,0.005211460869759321,-0.03810875490307808
1726869632299365253,0.20085830986499786,-0.017274264246225357,-0.026508327573537827,-0.010437539778649807,0.003926330711692572,-0.04057575389742851
1726869632303528660,0.2035093605518341,-0.017547670751810074,-0.025911467149853706,-0.019439080730080605,0.0009693537140265107,-0.04329846799373627
1726869632313643710,0.21330024302005768,-0.019642861559987068,-0.027173349633812904,-0.009537252597510815,0.020238053053617477,-0.04423561319708824
1726869632323988379,0.21627704799175262,-0.021674223244190216,-0.021983345970511436,0.028847506269812584,0.005122202914208174,-0.04515392333269119
1726869632334432116,0.20162631571292877,-0.026834284886717796,0.004849806893616915,0.08519180119037628,-0.010034091770648956,-0.05201944336295128
1726869632348600398,0.19390401244163513,-0.0283808596432209,0.04928126186132431,0.01815519668161869,0.022874565795063972,-0.07212753593921661
1726869632353806426,0.1877271831035614,-0.029136061668395996,0.08932766318321228,-0.07571486383676529,0.103139728307724,-0.08797706663608551
1726869632363745228,0.1844092309474945,-0.02550056204199791,0.1087595522403717,-0.16965976357460022,0.12373897433280945,-0.10732586681842804
1726869632373648450,0.1906130164861679,-0.024158883839845657,0.11214224994182587,-0.1830517053604126,0.13883431255817413,-0.11559515446424484
1726869632383899299,0.2016017585992813,-0.02167629636824131,0.10124988108873367,-0.16100358963012695,0.11009624600410461,-0.11373646557331085
1726869632400026074,0.20650614798069,-0.014810239896178246,0.08221210539340973,-0.171981081366539,0.05168726667761803,-0.0953807681798935
1726869632403786710,0.20856159925460815,-0.008965177461504936,0.05770333111286163,-0.17208942770957947,0.0073491428047418594,-0.0674910843372345
1726869632413715980,0.2084653675556183,-0.006811995059251785,0.03255216032266617,-0.11396482586860657,-0.01909887231886387,-0.03766179829835892
1726869632423486333,0.208318293094635,-0.00673650624230504,0.014038188382983208,-0.026725923642516136,-0.030543344095349312,-0.01406774576753378
1726869632433801920,0.20464129745960236,-0.007084247190505266,0.00036933133378624916,0.03942173719406128,-0.03178169205784798,-0.001768546411767602
1726869632448259207,0.19858770072460175,-0.006210974417626858,-0.007193692959845066,0.039909008890390396,-0.0247458815574646,0.00734602240845561
1726869632453888932,0.1955852508544922,-0.0045042382553219795,-0.01054307073354721,0.019892586395144463,-0.01672799326479435,0.011213475838303566
1726869632463845345,0.19920280575752258,-0.0017821263754740357,-0.01637464016675949,-0.004281667526811361,-0.006918126251548529,0.014213495887815952
1726869632473883296,0.20606598258018494,0.0003498349105939269,-0.020848600193858147,-0.014106731861829758,-0.00816281232982874,0.016219787299633026
1726869632484912274,0.21187260746955872,0.0012361719273030758,-0.024774547666311264,-0.00023439906362909824,0.0009543702472001314,0.018407264724373817
1726869632500266807,0.21165654063224792,0.0021295719780027866,-0.0280743557959795,0.008797534741461277,-0.00031953799771144986,0.023304281756281853
1726869632503842782,0.21231263875961304,0.002815773943439126,-0.029597632586956024,0.010232524946331978,0.004537593573331833,0.03322931379079819
1726869632513776557,0.21149618923664093,0.0025513956788927317,-0.028889518231153488,0.013169568963348866,0.012408284470438957,0.041958920657634735
1726869632524302634,0.20882542431354523,0.0022339760325849056,-0.02531348168849945,0.012321500107645988,0.013310623355209827,0.04509474337100983
1726869632534103995,0.20505258440971375,0.002967210253700614,-0.0214634258300066,-0.0019550547003746033,0.008428905159235,0.041545670479536057
1726869632550011998,0.2007310539484024,0.0037014149129390717,-0.01771259680390358,-0.013969914056360722,-0.0015177899040281773,0.03572164848446846
1726869632553822895,0.19838634133338928,0.005036138463765383,-0.017376475036144257,-0.027309028431773186,-0.0187380313873291,0.03150387853384018
1726869632563827637,0.19641874730587006,0.007419487461447716,-0.019772663712501526,-0.046272993087768555,-0.035278115421533585,0.028633495792746544
1726869632574151336,0.19922752678394318,0.010731073096394539,-0.023122496902942657,-0.07374853640794754,-0.05223177745938301,0.03090612217783928
1726869632584574334,0.20067955553531647,0.012644164264202118,-0.02536689303815365,-0.0787968710064888,-0.0524120107293129,0.03450999781489372
1726869632599148635,0.19768588244915009,0.012748726643621922,-0.027965746819972992,-0.058069270104169846,-0.05257295072078705,0.038693223148584366
1726869632603726748,0.1970423310995102,0.011612655594944954,-0.028381554409861565,-0.028220999985933304,-0.03716665506362915,0.03967897593975067
1726869632613441414,0.19856232404708862,0.01050175167620182,-0.028554415330290794,-0.014122390188276768,-0.026965714991092682,0.03546200320124626
1726869632623949642,0.20007726550102234,0.01028413139283657,-0.027964603155851364,-0.018243148922920227,-0.02019398845732212,0.03220939636230469
1726869632634183727,0.20316460728645325,0.009630182757973671,-0.027343392372131348,-0.012341686524450779,-0.004647939931601286,0.03259581699967384
1726869632648924313,0.20971746742725372,0.009165649302303791,-0.029301360249519348,0.00671372190117836,0.01037388201802969,0.03190667927265167
1726869632653598153,0.2177380919456482,0.008959995582699776,-0.03233162313699722,0.022184086963534355,0.010601951740682125,0.030302096158266068
1726869632663465003,0.22519969940185547,0.009033032692968845,-0.03335704654455185,0.025686195120215416,0.013242155313491821,0.02930988185107708
1726869632674146234,0.22982393205165863,0.008732309564948082,-0.033737022429704666,0.027912523597478867,0.014378378167748451,0.028073471039533615
1726869632684324553,0.23502933979034424,0.008584954775869846,-0.03306570276618004,0.025991661474108696,0.015329796820878983,0.02885831519961357
1726869632702005828,0.24057941138744354,0.00877059530466795,-0.03187892213463783,0.02620263211429119,0.015741994604468346,0.029180487617850304
1726869632703486080,0.23763225972652435,0.0126995500177145,-0.02034039795398712,-0.037596430629491806,-0.02202983945608139,0.030703138560056686
1726869632713777318,0.22435438632965088,0.02099771238863468,0.006424494553357363,-0.09262484312057495,-0.04931233078241348,0.03375070542097092
1726869632724012623,0.21813008189201355,0.022548673674464226,0.04902027174830437,0.002645778702571988,0.005766081623733044,0.05133615806698799
1726869632734301667,0.21153950691223145,0.02272307127714157,0.08462537825107574,0.07001849263906479,0.08659574389457703,0.062751404941082
1726869632749703140,0.20741379261016846,0.021391432732343674,0.09494008123874664,0.13948412239551544,0.10492371022701263,0.07058227807283401
1726869632753729223,0.21503891050815582,0.021488184109330177,0.1012045219540596,0.1511196494102478,0.10972163826227188,0.07856529206037521
1726869632763797082,0.221145361661911,0.01999128796160221,0.08457059413194656,0.14439158141613007,0.06768418103456497,0.06719060242176056
1726869632774380651,0.22220446169376373,0.017454620450735092,0.0646449476480484,0.13061746954917908,0.03166278451681137,0.04843486472964287
1726869632784135765,0.22270329296588898,0.014386194758117199,0.037900663912296295,0.12385106831789017,0.005276609677821398,0.023382265120744705
1726869632799168262,0.2227153331041336,0.013536160811781883,0.012567691504955292,0.0875348225235939,-0.016974125057458878,0.00018993340199813247
1726869632803763175,0.21946555376052856,0.011583772487938404,-0.0066535258665680885,0.05541236698627472,-0.03898895904421806,-0.015618564561009407
1726869632815319305,0.20941264927387238,0.009805621579289436,-0.01876077428460121,0.030287649482488632,-0.04771589860320091,-0.022999288514256477
1726869632823903075,0.1979638636112213,0.00934458989650011,-0.022929377853870392,0.021168267354369164,-0.04330449923872948,-0.023461496457457542
1726869632834143965,0.19531768560409546,0.0075659421272575855,-0.024741461500525475,0.03043494187295437,-0.023826703429222107,-0.01994621939957142
1726869632844012325,0.20226499438285828,0.005614295601844788,-0.026932764798402786,0.050426654517650604,-0.005339335650205612,-0.01518308836966753
1726869632853558144,0.21215146780014038,0.002257156651467085,-0.028269844129681587,0.07650121301412582,0.009869285859167576,-0.009937169030308723
1726869632867324758,0.2115137130022049,0.00021766337158624083,-0.030904386192560196,0.08206752687692642,0.002672908827662468,-0.012277591973543167
1726869632877236437,0.21186691522598267,-0.0014459065860137343,-0.03363901749253273,0.07430623471736908,-0.0015224925009533763,-0.015206224285066128
1726869632884227755,0.20935985445976257,-0.0019520876230672002,-0.037245817482471466,0.05051511898636818,-0.008468817919492722,-0.020470067858695984
1726869632894105892,0.20422662794589996,-0.0009912962559610605,-0.036297403275966644,0.010079518891870975,-0.02369062975049019,-0.022598130628466606
1726869632903565210,0.19790340960025787,-0.0006960236351005733,-0.03440732881426811,-0.014851672574877739,-0.0324530228972435,-0.020440125837922096
1726869632914736442,0.1887045055627823,-0.0009768957970663905,-0.03245314583182335,-0.010255134664475918,-0.041840560734272,-0.01343061588704586
1726869632926248344,0.18432320654392242,-0.0014604923781007528,-0.03139302134513855,0.0005721553461626172,-0.04280184581875801,-0.008240080438554287
1726869632933896579,0.18458330631256104,-0.0025573442690074444,-0.03423529490828514,0.01040157862007618,-0.04766033589839935,-0.002822085050866008
1726869632943603928,0.18555139005184174,-0.003517019795253873,-0.03985108062624931,0.012456824071705341,-0.049806613475084305,0.00014016113709658384
1726869632953390052,0.18589232861995697,-0.003774346085265279,-0.04670053347945213,-0.000537794956471771,-0.0621996708214283,-0.003089306876063347
1726869632963763949,0.18411312997341156,-0.004340786952525377,-0.050525397062301636,-0.0101211778819561,-0.06663838773965836,-0.009266483597457409
1726869632973801475,0.18019860982894897,-0.0036984209436923265,-0.049134451895952225,-0.026481639593839645,-0.06758812814950943,-0.01514420472085476
1726869632983955213,0.18014448881149292,-0.003983519040048122,-0.04537968337535858,-0.01967177540063858,-0.0594666562974453,-0.01363385934382677
1726869632993710200,0.18150123953819275,-0.005437474697828293,-0.0391465462744236,0.0041450923308730125,-0.04887634515762329,-0.01035948097705841
1726869633003750358,0.18356992304325104,-0.005935301538556814,-0.030892517417669296,0.00814888346940279,-0.031171495094895363,-0.005669961217790842
1726869633013544633,0.18720033764839172,-0.006439597811549902,-0.0259166918694973,0.002442812081426382,-0.01695350557565689,-0.004607174079865217
1726869633023711991,0.1943788230419159,-0.007439848501235247,-0.024603333324193954,0.01138857752084732,-0.011336851865053177,-0.0063756732270121574
1726869633033653702,0.20186524093151093,-0.008870639838278294,-0.023888908326625824,0.02447938732802868,-0.004513729829341173,-0.008815373294055462
1726869633044572478,0.2062142789363861,-0.009600871242582798,-0.022618727758526802,0.01800062321126461,-0.00034590080031193793,-0.012838281691074371
1726869633053740575,0.20911526679992676,-0.009344800375401974,-0.018812403082847595,-0.009544053114950657,0.009694918058812618,-0.013435717672109604
1726869633063853487,0.2190098613500595,-0.007289516273885965,-0.012284843251109123,-0.07047350704669952,0.0478675402700901,-0.01715862564742565
1726869633073857996,0.23250922560691833,0.0033084810711443424,-0.008786455728113651,-0.13312414288520813,0.10502409934997559,-0.022574134171009064
1726869633083893738,0.23669420182704926,0.007163339760154486,0.017148492857813835,-0.12420956045389175,0.11770445108413696,-0.03240123763680458
1726869633093587098,0.23554769158363342,0.007890463806688786,0.04323870688676834,0.016836190596222878,0.09098036587238312,-0.03864619508385658
1726869633104559992,0.2363560050725937,0.008738657459616661,0.07228726148605347,0.12559819221496582,0.011181028559803963,-0.0551743246614933
1726869633113729159,0.23271898925304413,0.0001285114121856168,0.12240713834762573,0.173311248421669,-0.09702552109956741,-0.0757596492767334
1726869633123864339,0.22437316179275513,0.0005354828317649662,0.12066148966550827,0.09508718550205231,-0.12307063490152359,-0.08512319624423981
1726869633134040352,0.2094968557357788,0.00014015348278917372,0.0944380834698677,0.008471411652863026,-0.11395052075386047,-0.07611101120710373
1726869633144530986,0.1997445970773697,0.00021740360534749925,0.07257115095853806,-0.016120679676532745,-0.06988470256328583,-0.05950536951422691
1726869633156909477,0.19177554547786713,0.00019436274305917323,0.04665365442633629,0.011622522957623005,-0.03254968300461769,-0.04213252291083336
1726869633163671138,0.18572449684143066,0.001643387135118246,0.025644682347774506,0.016519764438271523,-0.0053142220713198185,-0.028922107070684433
1726869633173262808,0.1807822734117508,0.003930442500859499,0.007876959629356861,-0.004905276000499725,0.007435293402522802,-0.01909461058676243
1726869633184289943,0.1765184849500656,0.004879050422459841,-0.003772917902097106,-0.018589550629258156,0.0200284942984581,-0.00979625154286623
1726869633194582350,0.17451035976409912,0.004975755233317614,-0.012992089614272118,-0.009768659248948097,0.027316926047205925,-0.005685113836079836
1726869633205268295,0.17315331101417542,0.004492661915719509,-0.02027040719985962,-0.0005965052987448871,0.03164411708712578,-0.0029833714943379164
1726869633214067340,0.17304284870624542,0.0035044820979237556,-0.02281002327799797,0.0021111899986863136,0.027352390810847282,0.0006818530382588506
1726869633224162568,0.17228008806705475,0.0019959211349487305,-0.02430643141269684,0.007861056365072727,0.026000438258051872,0.006563528906553984
1726869633234499882,0.1675817370414734,0.0003292321052867919,-0.026271069422364235,0.026485303416848183,0.007439358159899712,0.013977439142763615
